the_geom,cartodb_id,the_geom_webmercator,record_id,station_key,station_id,name,road_name,full_name,common_road_name,secondary_name,road_name_base,road_name_type,intersection,distance_to_intersection,road_number,link_number,mab_way_type,mab_way_number,mab_identifier,road_functional_hierarchy,road_on_type,lane_count,road_classification_type,road_classification_admin,rms_region,lga,suburb,post_code,device_type,heavy_vehicle_checking_station,permanent_station,vehicle_classifier,lambert_easting,lambert_northing,wgs84_latitude,wgs84_longitude,direction_seq,quality_rating,publish,md5,updated_on
,5557,,,15828002,7211,Lily Lane,Lily Lane,"Lily Lane, South of Fern Circuit",Lily Lane,South of Fern Circuit,Lily,Lane,Fern Circuit,40,-10,-10,NULL,NULL,NULL,Local Road,OnGround,OneLane,Lane,Local,Hunter,Newcastle,Adamstown,2289,Tirtl,false,1,1,9740191,4524353.5,-32.940571,151.71312,7,5,true,be6e76534a9cbe57941a6971d910a6eb,2018-06-12 02:48:41.978017+00
,5558,,,58612,97340,Oxley Avenue,Oxley Avenue,"Oxley Avenue, North of High Street",Oxley Avenue,North of High Street,Oxley,Avenue,High Street,60,0000080,0340,NULL,NULL,NULL,Arterial Road,OnGround,TwoOrMoreLanes,Avenue,Regional,South West,Carrathool,Hillston,2675,Trafficorder Tube Axlepair Counter,false,0,0,9163953,4473475.5,-33.480766,145.534805,9,5,true,417b961c9a41b3a2f7ce41fa423d8977,2018-06-12 02:48:41.978017+00
,5559,,,56692,19035,Sydenham Road,Sydenham Road,"Sydenham Road, West of Victoria Road",Sydenham Road,West of Victoria Road,Sydenham,Road,Victoria Road,20,0000664,0070,NULL,NULL,NULL,Arterial Road,OnGround,TwoOrMoreLanes,Road,State,Sydney,Marrickville,Marrickville,2204,Trafficorder Tube Axlepair Counter,false,0,0,9684475,4419245,-33.90963,151.162048,10,5,true,710efc78db32af23f3a6ed4870bc7aeb,2018-06-12 02:48:41.978017+00
,5560,,,58856,99931,Castlereagh Highway,Castlereagh Highway,"Castlereagh Highway, South of Abattoirs Road",Castlereagh Highway,South of Abattoirs Road,Castlereagh,Highway,Abattoirs Road,110,0000018,1180,B,55,B55,Primary Road,OnGround,TwoOrMoreLanes,Highway,State,Western,Mid-Western Regional,Menah,2850,Trafficorder Dual Tube Classifier,false,0,1,9539223,4573615.5,-32.559254,149.549698,9,5,true,4dbb7f7bd091635de8b3a10399455245,2018-06-12 02:48:41.978017+00
,5561,,,56098,05622,Hanbury Street,Hanbury Street,"Hanbury Street, East of Waratah Street",Hanbury Street,East of Waratah Street,Hanbury,Street,Waratah Street,20,0000326,0130,B,63,B63,Arterial Road,OnGround,TwoOrMoreLanes,Street,State,Hunter,Newcastle,Mayfield,2304,Trafficorder Tube Axlepair Counter,false,0,0,9742526,4528977,-32.897934,151.73584,9,5,true,b5b01373fb1bc06495989748e45e918b,2018-06-12 02:48:41.978017+00
,5562,,,58444,96186,Mitchell Highway,Mitchell Highway,"Mitchell Highway, North of Darling Street",Mitchell Highway,North of Darling Street,Mitchell,Highway,Darling Street,1360,0000007,1230,B,71,B71,Primary Road,OnGround,TwoOrMoreLanes,Highway,State,Western,Bourke,North Bourke,2840,Trafficorder Dual Tube Classifier,false,0,0,9199954,4855579,-30.037298,145.963333,9,5,true,013642b22e63df7699c6d9fe5017d7e9,2018-06-12 02:48:41.978017+00
,5563,,,57257,66249,Fairfield Street,Fairfield Street,"Fairfield Street, East of Cockburn Crescent","Fairfield.fairfield St, Fairfield",East of Cockburn Crescent,Fairfield,Street,Cockburn Crescent,30,0007232,0020,NULL,NULL,NULL,Distributor Road,OnGround,TwoOrMoreLanes,Street,Regional,Sydney,Fairfield,Fairfield East,2165,Tirtl,false,1,1,9666310,4424422,-33.869324,150.963486,10,4,true,9e7eaadffe38cce948afa5cdce638df4,2018-06-12 02:48:41.978017+00
,5564,,,58363,95608,Pine Avenue,Pine Avenue,"Pine Avenue, East of Maple Street",Pine Avenue,East of Maple Street,Pine,Avenue,Maple Street,90,0000080,0090,NULL,NULL,NULL,Arterial Road,OnGround,TwoOrMoreLanes,Avenue,State,South West,Leeton,Leeton,2705,Trafficorder Tube Axlepair Counter,false,0,0,9245405,4355588.5,-34.551659,146.404755,10,5,true,ac1515d3194be3dbd9f34eecc6256eac,2018-06-12 02:48:41.978017+00
,5565,,,58624,97442,Whitton Darlington Point Road,Whitton Darlington Point Road,"Whitton Darlington Point Road, East of Narrand Street",Whitton Darlington Point Road,East of Narrand Street,Whitton Darlington Point,Road,Narrand Street,590,0000539,0040,NULL,NULL,NULL,Arterial Road,OnGround,TwoOrMoreLanes,Road,Regional,South West,Murrumbidgee,Darlington Point,2706,Trafficorder Tube Axlepair Counter,false,0,1,9210092,4353866.5,-34.564789,146.019592,10,5,true,15f9138771bf783e76d3cc07bbd2e187,2018-06-12 02:48:41.978017+00
,5566,,,58073,94093,Cunningar Road,Cunningar Road,"Cunningar Road, West of Lachlan Valley Way",Cunningar Road,West of Lachlan Valley Way,Cunningar,Road,Lachlan Valley Way,910,0000380,0010,NULL,NULL,NULL,Arterial Road,OnGround,TwoOrMoreLanes,Road,Regional,South West,Boorowa,Boorowa,2586,Trafficorder Tube Axlepair Counter,false,0,1,9455610,4364019.5,-34.465618,148.694977,10,5,true,9b0196dddf6eb0bba08bb839a791cffd,2018-06-12 02:48:41.978017+00
,5567,,,56269,07218,Springhill Road,Springhill Road,"Springhill Road, North of Masters Road",Springhill Road,North of Masters Road,Springhill,Road,Masters Road,120,0000581,0035,B,65,B65,Arterial Road,OnGround,TwoOrMoreLanes,Road,State,Southern,Wollongong,Spring Hill,2500,Trafficorder Tube Axlepair Counter,false,0,0,9655934,4360947,-34.445133,150.876785,5,5,true,7a553e821265c8af2cef9d5640460f71,2018-06-12 02:48:41.978017+00
,5568,,,15828011,T0281,Hume Highway,Hume Highway Hvcs,"Hume Highway, East of George Street","Sb Marulan Weigh Station, Marulan.sb Marulan Weigh Station, Marulan",East of George Street,Hume,Highway,George Street,830,0000002,1132,M,31,M31,Primary Road,OnGround,TwoOrMoreLanes,Highway,State,Southern,Goulburn Mulwaree,Marulan,2579,Tirtl,true,1,1,9576161,4334898.5,-34.70372,150.016647,5,5,true,2c244a82d9fa78cee1eefaad43e1a7be,2018-06-12 02:48:41.978017+00
,5569,,,15252004,6154,New England Highway,New England Highway,"New England Highway, South of Muscle Creek Road","New England.new England Highway, Nr Muswellbrook",South of Muscle Creek Road,New England,Highway,Muscle Creek Road,1640,0000009,0530,A,15,A15,Primary Road,OnGround,TwoOrMoreLanes,Highway,State,Hunter,Muswellbrook,Muswellbrook,2333,Tirtl,false,1,1,9669984,4598192.5,-32.300934,150.932449,9,4,true,54cb05755c74eee760c44fa5144da5ba,2018-06-12 02:48:41.978017+00
,5570,,,328024,99922,Castlereagh Highway,Castlereagh Highway,"Castlereagh Highway, West of Melrose Road",Castlereagh Highway,West of Melrose Road,Castlereagh,Highway,Melrose Road,1000,0000018,1130,B,55,B55,Primary Road,OnGround,TwoOrMoreLanes,Highway,State,Western,Mid-Western Regional,Burrundulla,2850,Trafficorder Dual Tube Classifier,false,0,1,9549460,4563310,-32.649929,149.66156,9,5,true,2e63f6d0e06c8f63eb8c8602ca036384,2018-06-12 02:48:41.978017+00
,5571,,,56202,05957,Grandview Road,Grandview Road,"Grandview Road, West of Lookout Road",Grandview Road,West of Lookout Road,Grandview,Road,Lookout Road,130,-10,-10,NULL,NULL,NULL,Distributor Road,OnGround,TwoOrMoreLanes,Road,Local,Hunter,Newcastle,New Lambton Heights,2305,Trafficorder Tube Axlepair Counter,false,0,0,9737935,4525282.5,-32.933109,151.688553,10,5,true,33c56956f8a9a90e6400e7be7eeb53c2,2018-06-12 02:48:41.978017+00
,5572,,,57052,50250,Hart Drive,Hart Drive,"Hart Drive, East of Mahony Road","Hart.hart Dr, Wentworthville",East of Mahony Road,Hart,Drive,Mahony Road,10,0000013,1200,A,28,A28,Primary Road,OnGround,TwoOrMoreLanes,Drive,State,Sydney,Parramatta,Constitution Hill,2145,Excel Lpl,false,1,1,9667717,4432323.5,-33.797592,150.975433,10,4,true,e9ed5e2349f8b4adf86a37c7c67b3ddc,2018-06-12 02:48:41.978017+00
,5573,,,56738,22001,Military Road,Military Road,"Military Road, West of Melrose Street","Military.military Rd, Spit Junction",West of Melrose Street,Military,Road,Melrose Street,10,0000164,0220,A,8,A8,Sub-Arterial Road,OnGround,TwoOrMoreLanes,Road,State,Sydney,Mosman,Mosman,2088,Excel Lpl,false,1,1,9691427,4428288,-33.825577,151.233261,10,4,true,a17ed580cb38fab415ec93743c79c343,2018-06-12 02:48:41.978017+00
,5574,,,58587,97246,Kidman Way,Kidman Way,"Kidman Way, North of Hutchings Road",Kidman Way,North of Hutchings Road,Kidman,Way,Hutchings Road,940,0000321,0045,B,87,B87,Arterial Road,OnGround,TwoOrMoreLanes,Way,State,South West,Jerilderie,Coleambally,2707,Trafficorder Tube Axlepair Counter,false,0,1,9194951,4317626.5,-34.890255,145.850143,9,5,true,bab5ade2601741423996acc9daa48c44,2018-06-12 02:48:41.978017+00
,5575,,,58202,95078,Sturt Highway,Sturt Highway,"Sturt Highway, West of Newell Highway",Sturt Highway,West of Newell Highway,Sturt,Highway,Newell Highway,30,0000014,0231,A,20,A20,Primary Road,OnGround,TwoOrMoreLanes,Highway,State,South West,Narrandera,Gillenbah,2700,Trafficorder Tube Axlepair Counter,false,0,1,9257423,4332252,-34.762707,146.534653,10,5,true,6af87beaa244e5481b60e81c2916766a,2018-06-12 02:48:41.978017+00
,5576,,,58287,95377,Newell Highway,Newell Highway,"Newell Highway, East of Nicholson Lane",Newell Highway,East of Nicholson Lane,Newell,Highway,Nicholson Lane,130,0000017,2480,B,64,B64,Primary Road,OnGround,TwoOrMoreLanes,Highway,State,South West,Bland,Wyalong,2671,Trafficorder Tube Axlepair Counter,false,0,1,9323616,4425157.5,-33.92514,147.25563,10,5,true,e0a9bc779c6efc476d73a23de4483808,2018-06-12 02:48:41.978017+00
,5577,,,55448,04026,Yamba Road,Yamba Road,"Yamba Road, East of James Creek Road",Lawrence-Yamba Road,East of James Creek Road,Yamba,Road,James Creek Road,380,0000152,0205,NULL,NULL,NULL,Arterial Road,OnGround,TwoOrMoreLanes,Road,Regional,Northern,Clarence Valley,James Creek,2463,Trafficorder Tube Axlepair Counter,false,0,1,9906628,4905056.5,-29.432274,153.247864,10,5,true,5e841b9e7623d8e2e0d6a0a6815e2cfe,2018-06-12 02:48:41.978017+00
,5578,,,58091,94150,Uriarra Road,Uriarra Road,"Uriarra Road, East of Norse Road",Uriarra Road,East of Norse Road,Uriarra,Road,Norse Road,40,3740100,0010,NULL,NULL,NULL,Arterial Road,OnGround,TwoOrMoreLanes,Road,Local,A.c.t.,Queanbeyan,Crestwood,2620,Trafficorder Tube Axlepair Counter,false,0,0,9501094,4265856.5,-35.343098,149.212921,9,5,true,eb3aeb861a667d777fa506e0c2fd9355,2018-06-12 02:48:41.978017+00
,5579,,,56605,100015,Princes Motorway,Princes Motorway,"Princes Motorway, South of Princes Highway","Princes.southern Freeway, Waterfall",South of Princes Highway,Princes,Motorway,Princes Highway,950,0006006,1000,M,1,M1,Motorway,OnGround,TwoOrMoreLanes,Motorway,State,Southern,Wollongong,Helensburgh,2508,Excel Lpl,false,1,1,9667598,4393204.5,-34.150352,150.990295,9,4,true,3a3e05b8c1e65e190db1c994acc51fe6,2018-06-12 02:48:41.978017+00
,5580,,,56288,07311,Jamberoo Mountain Road,Jamberoo Mountain Road,"Jamberoo Mountain Road, South of Cloonty Road",Woodstock Road,South of Cloonty Road,Jamberoo Mountain,Road,Cloonty Road,420,0000264,0061,NULL,NULL,NULL,Arterial Road,OnBridge,TwoOrMoreLanes,Road,Regional,Southern,Wingecarribee,Robertson,2577,Trafficorder Tube Axlepair Counter,false,0,1,9636040,4343258.5,-34.611076,150.667053,10,5,true,fd79241dec45dedd8f9b6e464ff6ba1c,2018-06-12 02:48:41.978017+00
,5581,,,55393,02384,Cleveland Street,Cleveland Street,"Cleveland Street, East of Woodburn Street","Cleveland.cleveland St, Redfern",East of Woodburn Street,Cleveland,Street,Woodburn Street,10,0000330,0120,NULL,NULL,NULL,Arterial Road,OnGround,TwoOrMoreLanes,Street,State,Sydney,Sydney,Redfern,2016,Trafficorder Dual Tube Classifier,false,1,0,9688149,4421396,-33.888908,151.200851,10,4,true,c80707fe1187260d2579c216b0834cf0,2018-06-12 02:48:41.978017+00
,5582,,,56413,08052,Princes Highway,Princes Highway,"Princes Highway, East of Kings Highway","Princes.princes Highway, Cullendulla",East of Kings Highway,Princes,Highway,Kings Highway,70,0000001,1890,A,1,A1,Primary Road,OnGround,TwoOrMoreLanes,Highway,State,Southern,Eurobodalla,North Batemans Bay,2536,Trafficorder Loop Counter,false,1,0,9588152,4224039,-35.699673,150.184463,9,4,true,5c2c69ecf11a68b85288db573d321686,2018-06-12 02:48:41.978017+00
,5583,,,99990011,7104-PR,Broughton Street,Broughton Street,"Broughton Street, North of Moore Street","Moore.moore-Oxley Bypass, Campbelltown",North of Moore Street,Broughton,Street,Moore Street,10,0000177,0140,NULL,NULL,NULL,Distributor Road,OnGround,TwoOrMoreLanes,Street,State,Sydney,Campbelltown,Campbelltown,2560,Tirtl,false,1,1,9652218,4403067.5,-34.066612,150.81958,10,5,true,11edaf4c289ccec107a721578e5e3038,2018-06-12 02:48:41.978017+00
,5584,,,55798,05114,Avoca Drive,Avoca Drive,"Avoca Drive, South of The Entrance Road",Avoca Drive,South of The Entrance Road,Avoca,Drive,The Entrance Road,100,0000504,0010,NULL,NULL,NULL,Arterial Road,OnGround,TwoOrMoreLanes,Drive,State,Hunter,Gosford,Erina,2250,Trafficorder Tube Axlepair Counter,false,0,0,9706179,4470589.5,-33.438679,151.373474,9,5,true,d637293ee38ae15db8d1b8ad74740b7d,2018-06-12 02:48:41.978017+00
,5585,,,57259,67091,Greystanes Road,Greystanes Road,"Greystanes Road, South of Great Western Highway",Greystanes Road,South of Great Western Highway,Greystanes,Road,Great Western Highway,40,0000646,0040,NULL,NULL,NULL,Distributor Road,OnGround,TwoOrMoreLanes,Road,State,Sydney,Holroyd,Greystanes,2145,Trafficorder Dual Tube Classifier,false,0,0,9664134,4431218.5,-33.808781,150.93718,9,5,true,14f777c05a6a55cf088e52aa7964d26e,2018-06-12 02:48:41.978017+00
,5586,,,57734,92320,Bunnan Road,Bunnan Road,"Bunnan Road, West of Queen Street",Bunnan Road,West of Queen Street,Bunnan,Road,Queen Street,160,0000062,0060,NULL,NULL,NULL,Arterial Road,OnBridge,TwoOrMoreLanes,Road,Regional,Hunter,Upper Hunter,Bunnan,2337,Trafficorder Tube Axlepair Counter,false,0,1,9638311,4628963,-32.033699,150.584854,10,5,true,ce7d73dbabb453597946164ec2e10523,2018-06-12 02:48:41.978017+00
,5587,,,56543,09295,Pacific Highway,Pacific Highway,"Pacific Highway, South of Mingaletta Road",Pacific Highway,South of Mingaletta Road,Pacific,Highway,Mingaletta Road,40,0000010,2240,A,1,A1,Primary Road,OnGround,TwoOrMoreLanes,Highway,State,Northern,Port Macquarie-Hastings,Cooperabung,2441,Trafficorder Tube Axlepair Counter,false,0,1,9854219,4706777.5,-31.244495,152.822952,9,5,true,12847648b9c45aedfefdc1503ab07cae,2018-06-12 02:48:41.978017+00
,5588,,,15252012,6170,Mitchell Highway,Mitchell Highway,"Mitchell Highway, North of Eurimbla Road","Mitchell.mitchell Highway, Larras Lee",North of Eurimbla Road,Mitchell,Highway,Eurimbla Road,720,0000007,0440,A,32,A32,Primary Road,OnGround,TwoOrMoreLanes,Highway,State,Western,Wellington,Cundumbul,2866,Tirtl,false,1,1,9478219,4544924,-32.829884,148.905258,9,4,true,5f53e98b3848b84826e787534affb4ac,2018-06-12 02:48:41.978017+00
,5589,,,15216014,6143,Newell Highway,Newell Highway,"Newell Highway, East of Nicholson Lane","Newell.newell Highway, Nr Wyalong",East of Nicholson Lane,Newell,Highway,Nicholson Lane,420,0000017,2480,B,64,B64,Primary Road,OnGround,TwoOrMoreLanes,Highway,State,South West,Bland,Wyalong,2671,Tirtl,false,1,1,9323886,4425261.5,-33.924194,147.258545,9,4,true,0f5a20be0d48982d04e505e55a06cbb2,2018-06-12 02:48:41.978017+00
,5590,,,57704,92179,Gunnedah Road,Gunnedah Road,"Gunnedah Road, West of Cook Street",Gunnedah Road,West of Cook Street,Gunnedah,Road,Cook Street,90,0000011,0625,B,56,B56,Primary Road,OnGround,TwoOrMoreLanes,Road,State,Northern,Tamworth Regional,Taminda,2340,Trafficorder Tube Axlepair Counter,false,0,1,9671152,4731565.5,-31.097866,150.892059,3,5,true,452c2dd2b62746c40dd00c0b6e92bbc5,2018-06-12 02:48:41.978017+00
,5591,,,58373,95641,Kidman Way,Kidman Way,"Kidman Way, South of Willandra Avenue",Kidman Way,South of Willandra Avenue,Kidman,Way,Willandra Avenue,110,0000321,0150,B,87,B87,Arterial Road,OnGround,TwoOrMoreLanes,Way,State,South West,Griffith,Griffith,2680,Trafficorder Tube Axlepair Counter,false,0,0,9212304,4383197.5,-34.300381,146.046631,9,5,true,872fbda02fbe3a2b204e2d24a9538b40,2018-06-12 02:48:41.978017+00
,5592,,,56406,08004,Kings Highway,Kings Highway,"Kings Highway, North of Braidwood Street","Kings.batemans Bay-Queanbeyan Rd, Batemans Bay",North of Braidwood Street,Kings,Highway,Braidwood Street,120,0000051,0020,B,52,B52,Arterial Road,OnGround,TwoOrMoreLanes,Highway,State,Southern,Eurobodalla,Nelligen,2536,Trafficorder Dual Tube Classifier,false,0,1,9584260,4230034.5,-35.646713,150.139496,10,5,true,6df80cc0e0e52526e4ced3fae2ffdbcf,2018-06-12 02:48:41.978017+00
,5593,,,57803,92726,Wee Waa Road,Wee Waa Road,"Wee Waa Road, North of Francis Street",Kamilaroi Highway,North of Francis Street,Wee Waa,Road,Francis Street,190,0000029,0310,NULL,NULL,NULL,Primary Road,OnGround,TwoOrMoreLanes,Highway,State,Western,Narrabri,Narrabri,2390,Trafficorder Dual Tube Classifier,false,0,0,9566907,4821999.5,-30.312584,149.774338,9,5,true,eed5f3f5faf28b2cacb927685d23057a,2018-06-12 02:48:41.978017+00
,5594,,,57110,53029,Mona Vale Road,Mona Vale Road,"Mona Vale Road, West of Garrick Road","Mona Vale.mona Vale Rd, St Ives",West of Garrick Road,Mona Vale,Road,Garrick Road,20,0000162,0200,A,3,A3,Arterial Road,OnGround,TwoOrMoreLanes,Road,State,Sydney,Ku-Ring-Gai,St Ives,2075,Excel Lpl,false,1,1,9685842,4439593.5,-33.725666,151.168045,9,4,true,1bdf1e2f01291125229c6070be2eb198,2018-06-12 02:48:41.978017+00
,5595,,,58574,97210,Barham Road,Barham Road,"Barham Road, East of Perricoota Road",Barham Road,East of Perricoota Road,Barham,Road,Perricoota Road,800,0007605,0050,NULL,NULL,NULL,Sub-Arterial Road,OnGround,TwoOrMoreLanes,Road,Regional,South West,Murray,Caldwell,2710,Trafficorder Tube Axlepair Counter,false,0,1,9065828,4231068.5,-35.649769,144.413742,10,5,true,55b8249eb360a711e8e68b3d3d74e9b6,2018-06-12 02:48:41.978017+00
,5596,,,15370002,7213,Griffiths Road,Griffiths Road,"Griffiths Road, West of Turton Road","Griffiths.griffiths Rd, Lambton East",West of Turton Road,Griffiths,Road,Turton Road,20,0000082,0070,A,15,A15,Arterial Road,OnGround,TwoOrMoreLanes,Road,State,Hunter,Newcastle,Lambton,2299,Tirtl,false,1,1,9741467,4527138.5,-32.914944,151.725403,3,5,true,53273f55e15b4ba3c06801d34d2e4f88,2018-06-12 02:48:41.978017+00
,5597,,,56509,09008,Pacific Highway,Pacific Highway,"Pacific Highway, North of Mckinnon Road",Pacific Highway,North of Mckinnon Road,Pacific,Highway,Mckinnon Road,440,0000010,1949,A,1,A1,Primary Road,OnGround,TwoOrMoreLanes,Highway,State,Hunter,Great Lakes,Nabiac,2312,Trafficorder Dual Tube Classifier,false,0,0,9806478,4613339.5,-32.109516,152.372711,5,5,true,216a401b1d3b5e2db465652fa048964a,2018-06-12 02:48:41.978017+00
,5598,,,55383,02377,George Street,George Street,"George Street, South of Little Regent Street",George Street,South of Little Regent Street,George,Street,Little Regent Street,10,0000005,0005,A,22,A22,Arterial Road,OnGround,TwoOrMoreLanes,Street,State,Sydney,Sydney,Ultimo,2007,Trafficorder Loop Counter,false,1,0,9688338,4421948,-33.883865,151.202652,7,4,true,90dc419eae8b8f3f1ba8d3f82a411fac,2018-06-12 02:48:41.978017+00
,5599,,,57789,92647,Dangar Street,Dangar Street,"Dangar Street, East of Selina Street",Dangar Street,East of Selina Street,Dangar,Street,Selina Street,100,0000017,3170,A,39,A39,Primary Road,OnBridge,TwoOrMoreLanes,Street,State,Western,Narrabri,Narrabri,2390,Trafficorder Tube Axlepair Counter,false,0,0,9567432,4820341.5,-30.327404,149.780258,9,5,true,77ff24ee5449725258d46a6d5238af3d,2018-06-12 02:48:41.978017+00
,5600,,,17126153,T0498,Newell Highway,Newell Highway,"Newell Highway, North of Oxley Highway","Newell.newell Highway, Coonabarabran",North of Oxley Highway,Newell,Highway,Oxley Highway,800,0000017,3100,A,39,A39,Primary Road,OnGround,TwoOrMoreLanes,Highway,State,Western,Warrumbungle,Coonabarabran,2357,Tirtl,false,1,1,9520525,4720654.5,-31.236635,149.31575,9,5,true,c516ff3125f6849df5724d0a55aecc78,2018-06-12 02:48:41.978017+00
,5601,,,55809,05123,George Downes Drive,George Downes Drive,"George Downes Drive, South of Hallards Road",George Downes Drive,South of Hallards Road,George Downes,Drive,Hallards Road,140,0000590,0020,NULL,NULL,NULL,Arterial Road,OnGround,TwoOrMoreLanes,Drive,Regional,Hunter,Gosford,Central Mangrove,2250,Trafficorder Tube Axlepair Counter,false,0,1,9693553,4488240.5,-33.28421,151.229996,9,5,true,573cfd27d8e0a2776ae1ce49b9debb54,2018-06-12 02:48:41.978017+00
,5602,,,56241,07063,Princes Highway,Princes Highway,"Princes Highway, West of Wuru Drive","Princes.princes Highway, Burrill Lake",West of Wuru Drive,Princes,Highway,Wuru Drive,610,0000001,1810,A,1,A1,Primary Road,OnGround,TwoOrMoreLanes,Highway,State,Southern,Shoalhaven,Burrill Lake,2539,Trafficorder Loop Counter,false,1,0,9611587,4257073.5,-35.395348,150.431274,9,4,true,4ce3d6f4edaa5c80a603686d2f30de14,2018-06-12 02:48:41.978017+00
,5603,,,58578,97219,Barham Road,Barham Road,"Barham Road, East of Moulamein Road",Barham Road,East of Moulamein Road,Barham,Road,Moulamein Road,1150,0000341,0080,NULL,NULL,NULL,Arterial Road,OnGround,TwoOrMoreLanes,Road,Regional,South West,Wakool,Barham,2732,Trafficorder Tube Axlepair Counter,false,0,1,9046396,4239050,-35.573338,144.201584,10,5,true,7d57f8a8dc6f4652036b7a0e551e0183,2018-06-12 02:48:41.978017+00
,5604,,,57965,93739,Kendal Street,Kendal Street,"Kendal Street, East of Fitzroy Street",Kendal Street,East of Fitzroy Street,Kendal,Street,Fitzroy Street,70,0000006,0310,A,41,A41,Primary Road,OnGround,TwoOrMoreLanes,Street,State,Western,Cowra,Cowra,2794,Trafficorder Tube Axlepair Counter,false,0,0,9456927,4433846,-33.835495,148.69696,10,5,true,1bfc86d75d80a088b95ba91853d088c4,2018-06-12 02:48:41.978017+00
,5605,,,15175632,6113,Monaro Highway,Monaro Highway,"Monaro Highway, East of Polo Flat Road","Monaro.monaro Highway, Cooma",East of Polo Flat Road,Monaro,Highway,Polo Flat Road,400,0000019,1260,B,23,B23,Primary Road,OnGround,TwoOrMoreLanes,Highway,State,Southern,Cooma-Monaro,Cooma,2630,Tirtl,false,1,1,9493845,4169689.5,-36.210968,149.154999,9,4,true,0a4b069d56040ce9eab6175f28185e4f,2018-06-12 02:48:41.978017+00
,5606,,,56967,43224,Brunker Road,Brunker Road,"Brunker Road, East of Rosedale Avenue",Brunker Road,East of Rosedale Avenue,Brunker,Road,Rosedale Avenue,80,0000638,0020,NULL,NULL,NULL,Arterial Road,OnGround,TwoOrMoreLanes,Road,State,Sydney,Bankstown,Greenacre,2190,Trafficorder Tube Axlepair Counter,false,0,0,9673438,4420785.5,-33.899651,151.042053,10,5,true,6e00ebc5f517e99a835c84571d8affbb,2018-06-12 02:48:41.978017+00
,5607,,,56173,05865,Hillsborough Road,Hillsborough Road,"Hillsborough Road, East of Macquarie Road",Hillsborough Road,East of Macquarie Road,Hillsborough,Road,Macquarie Road,120,0000674,0150,B,57,B57,Sub-Arterial Road,OnGround,TwoOrMoreLanes,Road,State,Hunter,Lake Macquarie,Warners Bay,2282,Trafficorder Tube Axlepair Counter,false,0,0,9734521,4521740,-32.966431,151.653732,10,5,true,b7fd64f4f8297f9d6efd2ab7999ae13a,2018-06-12 02:48:41.978017+00
,5608,,,58063,94061,Snowy Mountains Highway,Snowy Mountains Highway,"Snowy Mountains Highway, South of Hume Highway",Snowy Mountains Highway,South of Hume Highway,Snowy Mountains,Highway,Hume Highway,950,0000004,0625,B,72,B72,Primary Road,OnGround,TwoOrMoreLanes,Highway,State,South West,Gundagai,Mount Adrah,2729,Trafficorder Tube Axlepair Counter,false,0,1,9380028,4285119,-35.185589,147.878983,10,5,true,f01bfb164cdc96456cfa0e040e808469,2018-06-12 02:48:41.978017+00
,5609,,,58364,95610,Yanco Avenue,Yanco Avenue,"Yanco Avenue, South of Maiden Avenue",Yanco Avenue,South of Maiden Avenue,Yanco,Avenue,Maiden Avenue,90,0000080,0060,NULL,NULL,NULL,Arterial Road,OnGround,TwoOrMoreLanes,Avenue,Local,South West,Leeton,Leeton,2705,Trafficorder Tube Axlepair Counter,false,0,1,9245971,4353921.5,-34.566723,146.410828,9,5,true,206ab32a4d2e0da2af7d8d2e21e1fcd1,2018-06-12 02:48:41.978017+00
,5610,,,58573,97207,Yanga Way,Yanga Way,"Yanga Way, East of Goodnight Road",Yanga Way,East of Goodnight Road,Yanga,Way,Goodnight Road,60,0000694,0040,NULL,NULL,NULL,Arterial Road,OnGround,TwoOrMoreLanes,Way,Local,South West,Wakool,Kyalite,2715,Trafficorder Tube Axlepair Counter,false,0,1,8975396,4303150,-34.976185,143.442749,9,5,true,6bf2e79d59bd8652909902186a526213,2018-06-12 02:48:41.978017+00
,5611,,,57727,92294,Kamilaroi Highway,Kamilaroi Highway,"Kamilaroi Highway, North of Goolhi Road",Kamilaroi Highway,North of Goolhi Road,Kamilaroi,Highway,Goolhi Road,980,0000029,0207,B,51,B51,Primary Road,OnGround,TwoOrMoreLanes,Highway,State,Northern,Gunnedah,Emerald Hill,2380,Trafficorder Tube Axlepair Counter,false,0,1,9600854,4760533.5,-30.858047,150.14624,9,5,true,66c353959ebb16265f3179d5ccc47900,2018-06-12 02:48:41.978017+00
,5612,,,56518,09120,Pacific Highway,Pacific Highway,"Pacific Highway, South of Nancy Bird Walton Drive",Pacific Highway,South of Nancy Bird Walton Drive,Pacific,Highway,Nancy Bird Walton Drive,660,0000010,2090,A,1,A1,Primary Road,OnGround,TwoOrMoreLanes,Highway,State,Northern,Port Macquarie-Hastings,Kew,2439,Trafficorder Tube Axlepair Counter,false,0,1,9842674,4662265,-31.651276,152.727508,9,5,true,126a26d4346158363251a8a2a9f0f058,2018-06-12 02:48:41.978017+00
,5613,,,58617,97354,Deniliquin Street,Deniliquin Street,"Deniliquin Street, West of Morris Street",Deniliquin Street,West of Morris Street,Deniliquin,Street,Morris Street,70,0000550,0130,NULL,NULL,NULL,Arterial Road,OnGround,TwoOrMoreLanes,Street,Regional,South West,Berrigan,Tocumwal,2714,Trafficorder Tube Axlepair Counter,false,0,0,9170451,4215059.5,-35.812176,145.566589,10,5,true,0da5200e2c4df3dc1f04b60d7a326b02,2018-06-12 02:48:41.978017+00
,5614,,,58419,96070,Kamilaroi Highway,Kamilaroi Highway,"Kamilaroi Highway, West of Gingie Road",Kamilaroi Highway,West of Gingie Road,Kamilaroi,Highway,Gingie Road,2120,0000029,0620,B,76,B76,Primary Road,OnGround,TwoOrMoreLanes,Highway,State,Western,Walgett,Walgett,2832,Trafficorder Dual Tube Classifier,false,0,1,9399891,4859497,-30.001989,148.034653,10,5,true,67f6b9d206c1548265f982bab14bc221,2018-06-12 02:48:41.978017+00
,5615,,,15252023,6193,Great Western Highway,Great Western Highway,"Great Western Highway, East of Coxs River Road","Great Western.great Western Highway, Mount Victoria",East of Coxs River Road,Great Western,Highway,Coxs River Road,1660,0000005,1540,A,32,A32,Primary Road,OnGround,TwoOrMoreLanes,Highway,State,Western,Lithgow,Little Hartley,2790,Tirtl,false,1,1,9598838,4458867,-33.579613,150.222458,10,5,true,ce64e409a2a35f8fd2b571d03d9e6ae9,2018-06-12 02:48:41.978017+00
,5616,,,57865,93235,Henry Parkes Way,Henry Parkes Way,"Henry Parkes Way, South of Sandy Creek Road",Henry Parkes Way,South of Sandy Creek Road,Henry Parkes,Way,Sandy Creek Road,410,0000061,0040,NULL,NULL,NULL,Arterial Road,OnGround,TwoOrMoreLanes,Way,State,Western,Cabonne,Boree,2800,Trafficorder Dual Tube Classifier,false,0,0,9468197,4499978.5,-33.237068,148.806442,10,5,true,7ea5c658900cb5a754074a14eff20c99,2018-06-12 02:48:41.978017+00
,5617,,,58190,95045,Riverina Highway,Riverina Highway,"Riverina Highway, West of Martin Street",Riverina Highway,West of Martin Street,Riverina,Highway,Martin Street,1580,0000020,1180,B,58,B58,Primary Road,OnGround,TwoOrMoreLanes,Highway,State,South West,Corowa,Howlong,2643,Trafficorder Tube Axlepair Counter,false,0,1,9263882,4198743.5,-35.966591,146.599655,10,5,true,ba7d457db78878f30b37dc5f90993e53,2018-06-12 02:48:41.978017+00
,5618,,,57181,60041,Macquarie Street,Macquarie Street,"Macquarie Street, West of Short Street",Terminus Street,West of Short Street,Macquarie,Street,Short Street,40,0000512,0165,A,34,A34,Distributor Road,OnGround,TwoOrMoreLanes,Street,State,Sydney,Liverpool,Liverpool,2170,Trafficorder Dual Tube Classifier,false,0,0,9661927,4418067,-33.928116,150.918671,10,5,true,28abba57467e9e46b72cc96d0bf36ace,2018-06-12 02:48:41.978017+00
,5619,,,57594,91205,Bundarra Road,Bundarra Road,"Bundarra Road, North of Woodford Place",Thunderbolts Way,North of Woodford Place,Bundarra,Road,Woodford Place,210,0000073,0270,NULL,NULL,NULL,Arterial Road,OnGround,TwoOrMoreLanes,Way,Regional,Northern,Inverell,Gilgai,2360,Trafficorder Tube Axlepair Counter,false,0,1,9698165,4869281.5,-29.847488,151.118133,9,5,true,f439f65276a83adb75a63b25f1a0e1bc,2018-06-12 02:48:41.978017+00
,5620,,,57299,70002,Western Motorway,Western Motorway,"Western Motorway, South of Ponds Road","Western.m4 Western Mwy, Greystanes",South of Ponds Road,Western,Motorway,Ponds Road,250,0006004,1150,M,4,M4,Motorway,OnGround,TwoOrMoreLanes,Motorway,State,Sydney,Blacktown,Prospect,2148,Trafficorder Dual Tube Classifier,false,0,0,9662779,4431548,-33.806267,150.922424,7,5,true,dc11661eb164ffbeacb1f7e61237b8e1,2018-06-12 02:48:41.978017+00
,5621,,,56293,07327,Mount Keira Road,Mount Keira Road,"Mount Keira Road, West of Abercrombie Street",Mount Keira Road,West of Abercrombie Street,Mount Keira,Road,Abercrombie Street,100,-10,-10,NULL,NULL,NULL,Arterial Road,OnGround,TwoOrMoreLanes,Road,Local,Southern,Wollongong,West Wollongong,2500,Trafficorder Tube Axlepair Counter,false,0,0,9655120,4363401.5,-34.423283,150.866943,10,5,true,71c6bf7b3838f26b5eae8045be056449,2018-06-12 02:48:41.978017+00
,5622,,,58088,94145,Kings Highway,Kings Highway,"Kings Highway, West of Burbong Avenue",Kings Highway,West of Burbong Avenue,Kings,Highway,Burbong Avenue,140,0000051,0301,B,52,B52,Arterial Road,OnGround,TwoOrMoreLanes,Highway,State,Southern,Palerang,Carwoola,2620,Trafficorder Tube Axlepair Counter,false,0,1,9510066,4266072,-35.339401,149.311569,10,5,true,6213a4845b4c53e65dad123221c39cb3,2018-06-12 02:48:41.978017+00
,5623,,,58147,94476,Olympic Highway,Olympic Highway,"Olympic Highway, West of Old Gundagai Road",Olympic Highway,West of Old Gundagai Road,Olympic,Highway,Old Gundagai Road,560,0000078,0480,A,41,A41,Arterial Road,OnGround,TwoOrMoreLanes,Highway,State,South West,Cootamundra,Wallendbeen,2588,Trafficorder Tube Axlepair Counter,false,0,1,9403477,4354062.5,-34.561783,148.128342,9,5,true,60a98247e37df1b745af2a757f30203e,2018-06-12 02:48:41.978017+00
,5624,,,58194,95062,Sturt Highway,Sturt Highway,"Sturt Highway, East of Ashmont Avenue",Sturt Highway,East of Ashmont Avenue,Sturt,Highway,Ashmont Avenue,80,0000014,0120,A,20,A20,Primary Road,OnGround,TwoOrMoreLanes,Highway,State,South West,Wagga Wagga,Ashmont,2650,Trafficorder Tube Axlepair Counter,false,0,1,9329620,4292420.5,-35.122372,147.325088,10,5,true,af5d6339332e1b06a0bb196e721d8aa4,2018-06-12 02:48:41.978017+00
,5625,,,56321,07413,Burragorang Road,Burragorang Road,"Burragorang Road, East of Egans Road",Burragorang Road,East of Egans Road,Burragorang,Road,Egans Road,90,-10,-10,NULL,NULL,NULL,Arterial Road,OnGround,TwoOrMoreLanes,Road,Local,Southern,Wollondilly,Oakdale,2570,Trafficorder Tube Axlepair Counter,false,0,0,9624059,4402797,-34.077969,150.514557,10,5,true,59c93ce2efa41e6e0e0284a8385d7e7b,2018-06-12 02:48:41.978017+00
,5626,,,15216018,6147,Newell Highway,Newell Highway,"Newell Highway, South of Balladoran Railway Road","Newell.newell Highway, Balladoran",South of Balladoran Railway Road,Newell,Highway,Balladoran Railway Road,870,0000017,2940,A,39,A39,Primary Road,OnGround,TwoOrMoreLanes,Highway,State,Western,Gilgandra,Gilgandra,2827,Tirtl,false,1,1,9455393,4665179.5,-31.74824,148.641083,9,4,true,3ae1d8db7c08dbeabcd8e5f698300db0,2018-06-12 02:48:41.978017+00
,5627,,,56111,05647,Richardson Road,Richardson Road,"Richardson Road, East of Adelaide Street",Richardson Road,East of Adelaide Street,Richardson,Road,Adelaide Street,50,0000104,0117,NULL,NULL,NULL,Arterial Road,OnGround,TwoOrMoreLanes,Road,State,Hunter,Port Stephens,Raymond Terrace,2324,Trafficorder Tube Axlepair Counter,false,0,0,9745402,4544776,-32.754311,151.758881,10,5,true,880f3fc584441e1c4143d6ab65f7cc9f,2018-06-12 02:48:41.978017+00
,5628,,,55369,02362,Mcevoy Street,Mcevoy Street,"Mcevoy Street, West of Pitt Street",Mcevoy Street,West of Pitt Street,Mcevoy,Street,Pitt Street,60,0000528,0045,NULL,NULL,NULL,Arterial Road,OnGround,TwoOrMoreLanes,Street,State,Sydney,Sydney,Waterloo,2017,Trafficorder Dual Tube Classifier,false,0,0,9688361,4420061.5,-33.900867,151.20372,10,5,true,b4d779ab5295936d5e295047d62c2593,2018-06-12 02:48:41.978017+00
,5629,,,57686,92102,New England Highway,New England Highway,"New England Highway, South of Chilcotts Creek Road",New England Highway,South of Chilcotts Creek Road,New England,Highway,Chilcotts Creek Road,460,0000009,0795,A,15,A15,Primary Road,OnGround,TwoOrMoreLanes,Highway,State,Northern,Liverpool Plains,Willow Tree,2339,Trafficorder Tube Axlepair Counter,false,0,1,9657489,4665413.5,-31.698866,150.773956,9,5,true,6f0951ba04ccad57c8ebb3b5b317e6a0,2018-06-12 02:48:41.978017+00
,5630,,,58362,95606,Spring Drive,Spring Drive,"Spring Drive, West of Federation Avenue",Spring Drive,West of Federation Avenue,Spring,Drive,Federation Avenue,120,0000314,0050,NULL,NULL,NULL,Arterial Road,OnGround,TwoOrMoreLanes,Drive,State,South West,Corowa,Corowa,2646,Trafficorder Dual Tube Classifier,false,0,1,9243312,4193744.5,-36.010723,146.371323,10,5,true,1006e48dcaba99e2749f3ffe4f8b5010,2018-06-12 02:48:41.978017+00
,5631,,,58135,94445,Barton Highway,Barton Highway,"Barton Highway, South of Franklin Place",Barton Highway,South of Franklin Place,Barton,Highway,Franklin Place,810,0000015,0100,A,25,A25,Primary Road,OnGround,TwoOrMoreLanes,Highway,State,South West,Yass Valley,Murrumbateman,2582,Trafficorder Dual Tube Classifier,false,0,1,9484820,4306203.5,-34.982334,149.025269,9,5,true,ab78950971dc4f6855d1e4ebb6e569a1,2018-06-12 02:48:41.978017+00
,5632,,,15252030,7115,Canterbury Road,Canterbury Road,"Canterbury Road, East of King Georges Road","Canterbury.canterbury Rd, Lakemba",East of King Georges Road,Canterbury,Road,King Georges Road,10,0000167,0280,A,34,A34,Arterial Road,OnGround,TwoOrMoreLanes,Road,State,Sydney,Canterbury,Wiley Park,2195,Tirtl,false,1,1,9676120,4417381,-33.929409,151.072479,10,5,true,86629d14a0b1374ae07f642bd36730f8,2018-06-12 02:48:41.978017+00
,5633,,,58867,COBAR,Kidman Way,Kidman Way,"Kidman Way, North of Bourke Road",Cobar-Nr Bourke Road,North of Bourke Road,Kidman,Way,Bourke Road,8610,0000421,0030,B,87,B87,Arterial Road,OnGround,TwoOrMoreLanes,Road,State,Western,Cobar,Cobar,2835,Tirtl,false,1,1,9192977,4704386,-31.400272,145.874161,9,4,true,25e25c726389432430edbb8231942098,2018-06-12 02:48:41.978017+00
,5634,,,55502,04164,Summerland Way,Summerland Way,"Summerland Way, West of Hillcrest Lane",Queensland Road,West of Hillcrest Lane,Summerland,Way,Hillcrest Lane,60,0000083,0330,B,91,B91,Arterial Road,OnGround,TwoOrMoreLanes,Road,State,Northern,Richmond Valley,Casino,2470,Trafficorder Tube Axlepair Counter,false,0,1,9889396,4971948.5,-28.839886,153.031052,9,5,true,72529db148f425572ef9f4d0cb2cb6ce,2018-06-12 02:48:41.978017+00
,5635,,,57268,68025,Great Western Highway,Great Western Highway,"Great Western Highway, East of Liverpool-Parramatta Transitway","Liverpool-Parramatta Transitway.great Western Hwy, Wentworthville",East of Liverpool-Parramatta Transitway,Great Western,Highway,Liverpool-Parramatta Transitway,240,0008002,0250,A,44,A44,Primary Road,OnGround,TwoOrMoreLanes,Highway,State,Sydney,Holroyd,South Wentworthville,2145,Tirtl,false,1,1,9667746,4430204,-33.816696,150.976623,10,4,true,c3d43b3472a439c7740db00e48ff37fd,2018-06-12 02:48:41.978017+00
,5636,,,57740,92344,Werris Creek Road,Werris Creek Road,"Werris Creek Road, East of Scotts Lane",Quirindi-West Tamworth Road,East of Scotts Lane,Werris Creek,Road,Scotts Lane,870,0000130,0070,NULL,NULL,NULL,Arterial Road,OnGround,TwoOrMoreLanes,Road,Regional,Northern,Liverpool Plains,Currabubula,2342,Trafficorder Tube Axlepair Counter,false,0,1,9650233,4711220.5,-31.288139,150.680405,9,5,true,624110763ef657bb7162652849613ebf,2018-06-12 02:48:41.978017+00
,5637,,,56602,100001,Cambridge Street,Cambridge Street,"Cambridge Street, North of Carre Avenue","Cambridge.cambridge St, Cabramatta West",North of Carre Avenue,Cambridge,Street,Carre Avenue,80,0000013,1060,A,28,A28,Primary Road,OnGround,TwoOrMoreLanes,Street,State,Sydney,Fairfield,Canley Heights,2166,Tirtl,false,1,1,9662713,4423575.5,-33.878181,150.924942,9,4,true,5f9af697ae0d301f2327e053c3a3744a,2018-06-12 02:48:41.978017+00
,5638,,,57851,93163,Mitchell Highway,Mitchell Highway,"Mitchell Highway, North of Burrendong Way",Mitchell Highway,North of Burrendong Way,Mitchell,Highway,Burrendong Way,910,0000007,0490,A,32,A32,Primary Road,OnGround,TwoOrMoreLanes,Highway,State,Western,Wellington,Apsley,2820,Trafficorder Dual Tube Classifier,false,0,1,9483217,4571817,-32.586376,148.953293,9,5,true,a9ce0a2f910cb55241c6cd0ceb4fe3c6,2018-06-12 02:48:41.978017+00
,5639,,,56334,07457,Berrima Road,Berrima Road,"Berrima Road, South of Taylor Avenue",Berrima Road,South of Taylor Avenue,Berrima,Road,Taylor Avenue,460,0000372,0020,NULL,NULL,NULL,Arterial Road,OnGround,TwoOrMoreLanes,Road,Regional,Southern,Wingecarribee,New Berrima,2577,Trafficorder Tube Axlepair Counter,false,0,1,9606854,4355196,-34.512287,150.34462,9,5,true,77038ba85cfd0a6b589eb057e9d806cf,2018-06-12 02:48:41.978017+00
,5640,,,56299,07355,Jervis Bay Road,Jervis Bay Road,"Jervis Bay Road, North of Gardner Road","Jervis Bay.jervis Bay Rd, Huskisson",North of Gardner Road,Jervis Bay,Road,Gardner Road,140,0000312,0011,NULL,NULL,NULL,Arterial Road,OnGround,TwoOrMoreLanes,Road,Regional,Southern,Shoalhaven,Falls Creek,2540,Trafficorder Loop Counter,false,1,0,9627749,4301854,-34.986893,150.592178,10,4,true,bba914aab66f319397b403c3a32a506a,2018-06-12 02:48:41.978017+00
,5641,,,15286014,7168,Great Western Highway,Great Western Highway,"Great Western Highway, East of Reservoir Road","Great Western.great Western Hwy, Blacktown",East of Reservoir Road,Great Western,Highway,Reservoir Road,10,0000005,0880,A,44,A44,Primary Road,OnGround,TwoOrMoreLanes,Highway,State,Sydney,Blacktown,Blacktown,2148,Tirtl,false,1,1,9660474,4432530,-33.798195,150.897125,7,5,true,330a3206e3125d60e2768566da62b8e3,2018-06-12 02:48:41.978017+00
,5642,,,57278,68226,Jersey Road,Jersey Road,"Jersey Road, South of Great Western Highway","Jersy.jersey Rd, South Wentworthville",South of Great Western Highway,Jersey,Road,Great Western Highway,70,0000013,1155,A,28,A28,Local Road,OnGround,TwoOrMoreLanes,Road,State,Sydney,Holroyd,South Wentworthville,2145,Trafficorder Dual Tube Classifier,false,0,0,9666613,4430420.5,-33.815128,150.964294,9,5,true,b57be7061e9dbaa1d4f30b86217f427d,2018-06-12 02:48:41.978017+00
,5643,,,15934005,T0293,Pacific Highway,Pacific Highway Hvcs,"Pacific Highway, West of Twelve Mile Creek Road","Pacific.pacific Highway, Raymond Terrace",West of Twelve Mile Creek Road,Pacific,Highway,Twelve Mile Creek Road,720,0000010,1810,A,1,A1,Primary Road,OnGround,TwoOrMoreLanes,Highway,State,Hunter,Port Stephens,Twelve Mile Creek,2324,Tirtl,true,1,1,9754492,4555185.5,-32.656689,151.850708,5,5,true,99240e228996518b11c2c23957ba9490,2018-06-12 02:48:41.978017+00
,5644,,,58227,95149,Goldfields Way,Goldfields Way,"Goldfields Way, North of Hollands Lane",Goldfields Way,North of Hollands Lane,Goldfields,Way,Hollands Lane,160,0000057,0160,B,85,B85,Arterial Road,OnGround,TwoOrMoreLanes,Way,Local,South West,Bland,Barmedman,2668,Trafficorder Tube Axlepair Counter,false,0,1,9329298,4413427,-34.030842,147.31752,9,5,true,983ab5c8f6c478dc15ab58cb7f41b74e,2018-06-12 02:48:41.978017+00
,5645,,,55761,05056,William Bailey Street,William Bailey Street,"William Bailey Street, North of Adelaide Street",William Bailey Street,North of Adelaide Street,William Bailey,Street,Adelaide Street,110,0000104,0130,NULL,NULL,NULL,Arterial Road,OnGround,TwoOrMoreLanes,Street,State,Hunter,Port Stephens,Raymond Terrace,2324,Trafficorder Tube Axlepair Counter,false,0,0,9744539,4544299,-32.758965,151.749908,10,5,true,ee84cd52fcf7df80d6ff3a786c0ba569,2018-06-12 02:48:41.978017+00
,5646,,,55483,04095,Bruxner Highway,Bruxner Highway,"Bruxner Highway, South of Wharf Road",Bruxner Highway,South of Wharf Road,Bruxner,Highway,Wharf Road,40,0000016,0210,B,60,B60,Primary Road,OnGround,TwoOrMoreLanes,Highway,State,Northern,Lismore,South Gundurimba,2480,Trafficorder Tube Axlepair Counter,false,0,1,9911251,4967192.5,-28.871071,153.257065,10,5,true,c3c324a3c1556425a241a3dd50375c03,2018-06-12 02:48:41.978017+00
,5647,,,57104,53003,Pacific Highway,Pacific Highway,"Pacific Highway, East of Blytheswood Avenue",Pacific Highway,East of Blytheswood Avenue,Pacific,Highway,Blytheswood Avenue,10,0000010,0600,A,1,A1,Primary Road,OnGround,TwoOrMoreLanes,Highway,State,Sydney,Ku-Ring-Gai,Warrawee,2074,Tirtl,false,1,1,9681584,4439368,-33.729225,151.122208,9,5,true,0fc15ca6a39c0de63af3dacc7d063e51,2018-06-12 02:48:41.978017+00
,5648,,,55740,05030,New England Highway,New England Highway,"New England Highway, West of Oswald Road",New England Highway,West of Oswald Road,New England,Highway,Oswald Road,490,0000009,0320,A,43,A43,Primary Road,OnGround,TwoOrMoreLanes,Highway,State,Hunter,Maitland,Harpers Hill,2321,Trafficorder Tube Axlepair Counter,false,0,1,9713871,4551388,-32.707191,151.419418,9,5,true,83089debbeecfa5fa04664d17d3c9d87,2018-06-12 02:48:41.978017+00
,5649,,,57790,92653,Scott Road,Scott Road,"Scott Road, East of Locks Lane",Scott Road,East of Locks Lane,Scott,Road,Locks Lane,240,0000009,0925,A,15,A15,Primary Road,OnGround,TwoOrMoreLanes,Road,State,Northern,Tamworth Regional,South Tamworth,2340,Trafficorder Tube Axlepair Counter,false,0,1,9674718,4730145,-31.109468,150.929977,9,5,true,dbd341a9216c9288e89a14a8935faad9,2018-06-12 02:48:41.978017+00
,5650,,,58891,RLXT001,Black Stump Way,Black Stump Way,"Black Stump Way, South of Round Mountain Road",Marrangaroo-Mullaley Road,South of Round Mountain Road,Black Stump,Way,Round Mountain Road,610,0000055,0420,NULL,NULL,NULL,Arterial Road,OnGround,TwoOrMoreLanes,Road,Regional,Western,Warrumbungle,Coolah,2843,Tirtl,false,1,1,9562462,4681229.5,-31.583057,149.766907,9,5,true,890ff8ccfc491806b5e10d9e1c8d73fa,2018-06-12 02:48:41.978017+00
,5651,,,56303,07366,Nowra Road,Nowra Road,"Nowra Road, North of Myra Vale Road",Bomaderry-Moss Vale Road,North of Myra Vale Road,Nowra,Road,Myra Vale Road,400,0000261,0040,B,73,B73,Arterial Road,OnGround,TwoOrMoreLanes,Road,State,Southern,Wingecarribee,Fitzroy Falls,2577,Sensys,false,1,0,9619564,4339277,-34.652058,150.488846,9,5,true,b52bfeab9fd2477c44a8e25bf71ea5c3,2018-06-12 02:48:41.978017+00
,5652,,,55508,04170,Summerland Way,Summerland Way,"Summerland Way, South of Red Lane",Summerland Way,South of Red Lane,Summerland,Way,Red Lane,180,0000083,0130,B,91,B91,Arterial Road,OnGround,TwoOrMoreLanes,Way,State,Northern,Clarence Valley,Koolkhan,2460,Trafficorder Tube Axlepair Counter,false,0,1,9875119,4886825,-29.612833,152.934708,9,5,true,df71c29145e4e2e2fc5030e8714d1d09,2018-06-12 02:48:41.978017+00
,5653,,,55302,01001,Sydney Harbour Bridge,Bradfield Highway,"Sydney Harbour Bridge, North of Hickson Road",Bradfield Highway,North of Hickson Road,Bradfield,Highway,Hickson Road,260,0000632,0020,NULL,NULL,NULL,Motorway,OnBridge,TwoOrMoreLanes,Highway,State,Sydney,Sydney,Milsons Point,2061,Trafficorder Dual Tube Classifier,false,0,1,9689231,4425433.5,-33.852116,151.21077,9,5,true,73a1d9491f60a1233f53262f4601f635,2018-06-12 02:48:41.978017+00
,5654,,,58584,97238,Conargo Road,Conargo Road,"Conargo Road, East of Carrathool Road",Conargo Road,East of Carrathool Road,Conargo,Road,Carrathool Road,1500,0000552,0040,NULL,NULL,NULL,Arterial Road,OnGround,TwoOrMoreLanes,Road,Local,South West,Conargo,Conargo,2710,Trafficorder Tube Axlepair Counter,false,0,1,9136146,4270819.5,-35.304813,145.197739,10,5,true,abbab3730190de2448286831cf61da6f,2018-06-12 02:48:41.978017+00
,5655,,,57188,62021,Newbridge Road,Newbridge Road,"Newbridge Road, East of Bridges Road",Milperra Road,East of Bridges Road,Newbridge,Road,Bridges Road,100,0000167,0510,A,34,A34,Arterial Road,OnGround,TwoOrMoreLanes,Road,State,Sydney,Liverpool,Moorebank,2170,Trafficorder Dual Tube Classifier,false,0,0,9663263,4417933.5,-33.928867,150.933182,10,5,true,dcaba1eb2fbe3e7b44133c8698182caa,2018-06-12 02:48:41.978017+00
,5656,,,58567,97189,Mid Western Highway,Mid Western Highway,"Mid Western Highway, West of Rankins Springs Road",Mid Western Highway,West of Rankins Springs Road,Mid Western,Highway,Rankins Springs Road,100,0000006,0750,B,64,B64,Primary Road,OnGround,TwoOrMoreLanes,Highway,State,South West,Carrathool,Rankins Springs,2669,Trafficorder Tube Axlepair Counter,false,0,1,9219503,4429379.5,-33.884274,146.129074,10,5,true,e87ee9824f0b000f4c55d5dee2bce0ee,2018-06-12 02:48:41.978017+00
,5657,,,56825,28026,Parramatta Road,Parramatta Road,"Parramatta Road, West of Potts Street",Parramatta Road,West of Potts Street,Parramatta,Road,Potts Street,50,0000005,0450,A,44,A44,Primary Road,OnGround,TwoOrMoreLanes,Road,State,Sydney,Strathfield,Homebush,2140,Trafficorder Tube Axlepair Counter,false,0,0,9676708,4424936,-33.86108,151.075653,10,5,true,f0010bc0753ec575f0f50b28fc91e719,2018-06-12 02:48:41.978017+00
,5658,,,58800,99715,Durham Street,Durham Street,"Durham Street, South of Charlotte Street",Durham Street,South of Charlotte Street,Durham,Street,Charlotte Street,60,0000005,1790,A,32,A32,Sub-Arterial Road,OnGround,TwoOrMoreLanes,Street,State,Western,Bathurst Regional,Bathurst,2795,Trafficorder Tube Axlepair Counter,false,0,0,9540155,4478497.5,-33.41724,149.584717,10,5,true,2bb767bf391c2f0969bf87cda3235cad,2018-06-12 02:48:41.978017+00
,5659,,,58640,98002,Silver City Highway,Silver City Highway,"Silver City Highway, South of Wentworth Road",Silver City Highway,South of Wentworth Road,Silver City,Highway,Wentworth Road,9860,0000022,0200,B,79,B79,Primary Road,OnGround,TwoOrMoreLanes,Highway,State,Western,Unincorporated Far West,Broken Hill,2880,Trafficorder Dual Tube Classifier,false,0,1,8772320,4615306,-32.081757,141.403915,9,5,true,ec8c960c4ac373a4af7a4c87a49b07f8,2018-06-12 02:48:41.978017+00
,5660,,,56959,43032,Henry Lawson Drive,Henry Lawson Drive,"Henry Lawson Drive, East of Wainwright Avenue","Henry Lawson.henry Lawson Dr, Peakhurst",East of Wainwright Avenue,Henry Lawson,Drive,Wainwright Avenue,220,0000508,0020,NULL,NULL,NULL,Arterial Road,OnBridge,TwoOrMoreLanes,Drive,State,Sydney,Bankstown,Padstow,2211,Trafficorder Loop Counter,false,1,0,9673149,4413756,-33.963131,151.04187,10,4,true,835e86241051fa0c18648119b3e99176,2018-06-12 02:48:41.978017+00
,5661,,,57612,91341,Gwydir Highway,Gwydir Highway,"Gwydir Highway, North of Biniguy Avenue",Gwydir Highway,North of Biniguy Avenue,Gwydir,Highway,Biniguy Avenue,1100,0000012,0600,B,76,B76,Primary Road,OnGround,TwoOrMoreLanes,Highway,State,Western,Moree Plains,Biniguy,2399,Trafficorder Dual Tube Classifier,false,0,1,9610265,4907633,-29.529783,150.197525,10,5,true,4a82169dc69e12e78e04fc49d71cfdfd,2018-06-12 02:48:41.978017+00
,5662,,,57609,91322,Carnarvon Highway,Carnarvon Highway,"Carnarvon Highway, North of O'neills Road",Carnarvon Highway,North of O'neills Road,Carnarvon,Highway,O'neills Road,30,0000028,0140,NULL,NULL,NULL,Primary Road,OnGround,TwoOrMoreLanes,Highway,State,Western,Moree Plains,Ashley,2400,Trafficorder Tube Axlepair Counter,false,0,1,9566654,4945850,-29.196751,149.737976,10,5,true,d5b16c09b3a5dfc037a47bd53252c339,2018-06-12 02:48:41.978017+00
,5663,,,58236,95181,Balfour Street,Balfour Street,"Balfour Street, East of Railway Parade",Balfour Street,East of Railway Parade,Balfour,Street,Railway Parade,60,0000078,0080,A,41,A41,Arterial Road,OnGround,TwoOrMoreLanes,Street,State,South West,Greater Hume,Culcairn,2660,Trafficorder Tube Axlepair Counter,false,0,0,9303422,4231982,-35.66766,147.037796,10,5,true,4a92cca38ab0a6cf12720678ab246204,2018-06-12 02:48:41.978017+00
,5664,,,56249,07099,Shellharbour Road,Shellharbour Road,"Shellharbour Road, North of Reddall Parade","Shellharbour.shellharbour Rd, Lake Illawarra",North of Reddall Parade,Shellharbour,Road,Reddall Parade,150,0000522,0101,B,65,B65,Arterial Road,OnGround,TwoOrMoreLanes,Road,State,Southern,Shellharbour,Lake Illawarra,2528,Excel Lpl,false,1,0,9654548,4350672,-34.538227,150.865845,9,4,true,a795e7aad63e7a5869729435f097d865,2018-06-12 02:48:41.978017+00
,5665,,,56438,08113,Bunga Street,Bunga Street,"Bunga Street, South of Paraboon Drive",Bunga Street,South of Paraboon Drive,Bunga,Street,Paraboon Drive,80,0000272,0125,NULL,NULL,NULL,Arterial Road,OnGround,TwoOrMoreLanes,Street,Regional,Southern,Bega Valley,Bermagui,2546,Trafficorder Dual Tube Classifier,false,0,1,9575873,4142971.75,-36.43306,150.075211,9,5,true,baa3e16e674af8a47846380627142ca4,2018-06-12 02:48:41.978017+00
,5666,,,58608,97330,Cobb Highway,Cobb Highway,"Cobb Highway, North of Lang Street",Cobb Highway,North of Lang Street,Cobb,Highway,Lang Street,190,0000021,0214,B,75,B75,Primary Road,OnBridge,TwoOrMoreLanes,Highway,State,South West,Hay,Hay South,2711,Trafficorder Tube Axlepair Counter,false,0,0,9102030,4357596.5,-34.516502,144.8423,9,5,true,6b548008bed89eff2279d4fd4ee0f8f5,2018-06-12 02:48:41.978017+00
,5667,,,58807,99824,Castlereagh Highway,Castlereagh Highway,"Castlereagh Highway, West of Lawnside Drive",Castlereagh Highway,West of Lawnside Drive,Castlereagh,Highway,Lawnside Drive,70,0000018,2085,B,55,B55,Primary Road,OnGround,TwoOrMoreLanes,Highway,State,Western,Warrumbungle,Mendooran,2842,Trafficorder Dual Tube Classifier,false,0,1,9499371,4655401,-31.82935,149.107498,10,5,true,317508ac622aff3b9114f79e0cab5fe0,2018-06-12 02:48:41.978017+00
,5668,,,57160,57025,Forest Way,Forest Way,"Forest Way, East of Neridah Avenue","Forest.forest Way, Belrose",East of Neridah Avenue,Forest,Way,Neridah Avenue,70,0000529,0040,NULL,NULL,NULL,Arterial Road,OnGround,TwoOrMoreLanes,Way,State,Sydney,Warringah,Belrose,2085,Excel Lpl,false,1,1,9690629,4439389,-33.725773,151.219788,9,5,true,12ca86e253097e568bc910fe129365b9,2018-06-12 02:48:41.978017+00
,5669,,,57738,92330,New England Highway,New England Highway,"New England Highway, East of Wrights Road",New England Highway,East of Wrights Road,New England,Highway,Wrights Road,430,0000009,0731,A,15,A15,Primary Road,OnGround,TwoOrMoreLanes,Highway,State,Hunter,Upper Hunter,Murulla,2337,Trafficorder Tube Axlepair Counter,false,0,0,9668555,4647625.5,-31.85561,150.897675,9,5,true,714ab1894cd2daf443940acd77a40d69,2018-06-12 02:48:41.978017+00
,5670,,,58316,95468,Riverina Highway,Riverina Highway,"Riverina Highway, West of Ramp Lane",Riverina Highway,West of Ramp Lane,Riverina,Highway,Ramp Lane,1210,0000020,1021,NULL,NULL,NULL,Primary Road,OnGround,TwoOrMoreLanes,Highway,State,South West,Albury,Lake Hume Village,3691,Trafficorder Tube Axlepair Counter,false,0,1,9303257,4185337.25,-36.088005,147.036148,10,5,true,13d32068de111254e4de5e709781af05,2018-06-12 02:48:41.978017+00
,5671,,,56153,05796,Pacific Highway,Pacific Highway,"Pacific Highway, West of Berrys Head Road","Pacific.pacific Highway, Narara",West of Berrys Head Road,Pacific,Highway,Berrys Head Road,20,0000010,1055,NULL,NULL,NULL,Primary Road,OnGround,TwoOrMoreLanes,Highway,State,Hunter,Gosford,Wyoming,2250,Trafficorder Loop Counter,false,1,0,9703819,4475427,-33.39595,151.345932,9,5,true,54d286b524b7941fb400cd508e759a08,2018-06-12 02:48:41.978017+00
,5672,,,56573,09870,Wallanbah Road,Wallanbah Road,"Wallanbah Road, West of Candoormakh Creek Road",Wallanbah Road,West of Candoormakh Creek Road,Wallanbah,Road,Candoormakh Creek Road,480,0000090,0215,NULL,NULL,NULL,Sub-Arterial Road,OnGround,TwoOrMoreLanes,Road,Regional,Hunter,Greater Taree,Nabiac,2312,Trafficorder Tube Axlepair Counter,false,0,1,9806119,4614713,-32.097305,152.368164,10,5,true,be85f53cc4f7c4df58392891adadf13b,2018-06-12 02:48:41.978017+00
,5673,,,55414,02400,Western Distributor,Western Distributor,"Western Distributor, South of Pyrmont Bridge Road",Western Distributor,South of Pyrmont Bridge Road,Western,Distributor,Pyrmont Bridge Road,70,0000165,0065,NULL,NULL,NULL,Motorway,OnBridge,TwoOrMoreLanes,Distributor,State,Sydney,Sydney,Pyrmont,2009,Trafficorder Dual Tube Classifier,false,0,0,9687597,4423167.5,-33.873138,151.194107,10,5,true,661ab192b7663d26b36d6f1da8735386,2018-06-12 02:48:41.978017+00
,5674,,,58336,95539,Wee Jasper Road,Wee Jasper Road,"Wee Jasper Road, East of Dowells Lane",Wee Jasper Road,East of Dowells Lane,Wee Jasper,Road,Dowells Lane,10,0000278,0011,NULL,NULL,NULL,Arterial Road,OnGround,TwoOrMoreLanes,Road,Regional,South West,Tumut,Bombowlee,2720,Trafficorder Tube Axlepair Counter,false,0,1,9411661,4272926.5,-35.292641,148.227982,9,5,true,8562173f17c704c87f33176b1fab3487,2018-06-12 02:48:41.978017+00
,5675,,,57444,74441,Duffy Avenue,Duffy Avenue,"Duffy Avenue, West of Pioneer Avenue",Duffy Avenue,West of Pioneer Avenue,Duffy,Avenue,Pioneer Avenue,70,0007483,0010,NULL,NULL,NULL,Distributor Road,OnGround,TwoOrMoreLanes,Avenue,Regional,Sydney,Hornsby,Thornleigh,2120,Trafficorder Tube Axlepair Counter,false,0,0,9677958,4439926.5,-33.725471,151.082825,10,5,true,41136dc7834786bce024a6e32b903243,2018-06-12 02:48:41.978017+00
,5676,,,55763,05057,New England Highway,New England Highway,"New England Highway, North of Enterprise Drive",New England Highway,North of Enterprise Drive,New England,Highway,Enterprise Drive,460,0000009,0113,A,43,A43,Primary Road,OnGround,TwoOrMoreLanes,Highway,State,Hunter,Newcastle,Beresfield,2322,Trafficorder Tube Axlepair Counter,false,0,1,9734048,4540067,-32.801376,151.639969,9,5,true,893b957ce20bc707eff90b312eca88a5,2018-06-12 02:48:41.978017+00
,5677,,,57273,68215,Liverpool-Parramatta Transitway,Liverpool-Parramatta Transitway,"Liverpool-Parramatta Transitway, South of Western Motorway",Liverpool-Parramatta Transitway,South of Western Motorway,Liverpool-Parramatta Transitway,,Western Motorway,10,0008002,0230,NULL,NULL,M4,Dedicated Bus Way,OnGround,TwoOrMoreLanes,,State,Sydney,Holroyd,South Wentworthville,2145,Trafficorder Tube Axlepair Counter,false,0,0,9667062,4430175,-33.817192,150.969238,9,5,true,59c463e6f7d768ab24d6474cf9cc0e9d,2018-06-12 02:48:41.978017+00
,5678,,,57774,92485,Kelly Street,Kelly Street,"Kelly Street, South of Smith Street",New England Highway,South of Smith Street,Kelly,Street,Smith Street,30,0000009,0660,A,15,A15,Primary Road,OnGround,TwoOrMoreLanes,Highway,State,Hunter,Upper Hunter,Scone,2337,Trafficorder Tube Axlepair Counter,false,0,0,9665003,4625609,-32.055351,150.868774,9,5,true,026cd2df4331bf4ee1680bf2f89833f8,2018-06-12 02:48:41.978017+00
,5679,,,328003,04311,Waterfall Way,Waterfall Way,"Waterfall Way, East of Tyson Street",Waterfall Way,East of Tyson Street,Waterfall,Way,Tyson Street,220,0000076,0011,B,78,B78,Arterial Road,OnGround,TwoOrMoreLanes,Way,State,Northern,Bellingen,Fernmount,2454,Trafficorder Dual Tube Classifier,false,0,1,9870646,4791990.5,-30.468712,152.944275,3,5,true,926e929dbcebfa46a4d3a83fd83ba887,2018-06-12 02:48:41.978017+00
,5680,,,58182,95021,Sturt Highway,Sturt Highway,"Sturt Highway, East of Euroley Road",Sturt Highway,East of Euroley Road,Sturt,Highway,Euroley Road,1600,0000014,0250,A,20,A20,Primary Road,OnGround,TwoOrMoreLanes,Highway,State,South West,Murrumbidgee,Darlington Point,2706,Trafficorder Tube Axlepair Counter,false,0,1,9228439,4341777,-34.675236,146.218658,10,5,true,b44e240f14c984fb3be11972df983659,2018-06-12 02:48:41.978017+00
,5681,,,57862,93229,Summer Street,Summer Street,"Summer Street, East of Peisley Street",Mitchell Highway,East of Peisley Street,Summer,Street,Peisley Street,60,0000007,0150,A,32,A32,Local Road,OnGround,TwoOrMoreLanes,Highway,State,Western,Orange,Orange,2800,Trafficorder Tube Axlepair Counter,false,0,0,9495813,4494226,-33.284313,149.104202,10,5,true,2097d87ab0d954b00eccf47679ffe068,2018-06-12 02:48:41.978017+00
,5682,,,55385,02379,Western Distributor,Western Distributor,"Western Distributor, West of Allen Street","Western.western Distributor, Pyrmont",West of Allen Street,Western,Distributor,Allen Street,40,0000165,0045,NULL,NULL,NULL,Motorway,OnBridge,TwoOrMoreLanes,Distributor,State,Sydney,Sydney,Pyrmont,2009,Trafficorder Loop Counter,false,1,0,9687664,4423058,-33.8741,151.19487,3,4,true,b5f30538ff2b99f30b2dd25e9739ee1c,2018-06-12 02:48:41.978017+00
,5683,,,58588,97252,Conargo Road,Conargo Road,"Conargo Road, North of Mulumbah Road",Conargo Road,North of Mulumbah Road,Conargo,Road,Mulumbah Road,200,0000552,0070,NULL,NULL,NULL,Arterial Road,OnGround,TwoOrMoreLanes,Road,Local,South West,Conargo,Wandook,2710,Trafficorder Tube Axlepair Counter,false,0,1,9120258,4253399,-35.459251,145.019394,9,5,true,1280a4a2454b3e0929b84748849ecba2,2018-06-12 02:48:41.978017+00
,5684,,,58087,94143,Tarago Road,Tarago Road,"Tarago Road, South of Ashby Drive",Tarago Road,South of Ashby Drive,Tarago,Road,Ashby Drive,70,0000268,0010,NULL,NULL,NULL,Arterial Road,OnGround,TwoOrMoreLanes,Road,Regional,Southern,Palerang,Bungendore,2621,Trafficorder Tube Axlepair Counter,false,0,0,9522177,4276236.5,-35.245296,149.442169,9,5,true,3de4314979bce2bcaca0a7fe66472052,2018-06-12 02:48:41.978017+00
,5685,,,57012,49002,Parramatta Road,Parramatta Road,"Parramatta Road, East of Harbord Street","Parramatta.parramatta Rd, Auburn",East of Harbord Street,Parramatta,Road,Harbord Street,140,0000005,0560,A,44,A44,Primary Road,OnBridge,TwoOrMoreLanes,Road,State,Sydney,Auburn,Auburn,2144,Trafficorder Loop Counter,false,1,0,9671957,4427931.5,-33.835732,151.023056,10,4,true,4b3d16c097bf2725fd3678662a8f438d,2018-06-12 02:48:41.978017+00
,5686,,,58734,99238,Great Western Highway,Great Western Highway,"Great Western Highway, South of Main Street",Great Western Highway,South of Main Street,Great Western,Highway,Main Street,120,0000005,1605,A,32,A32,Primary Road,OnGround,TwoOrMoreLanes,Highway,State,Western,Lithgow,Bowenfels,2790,Trafficorder Tube Axlepair Counter,false,0,0,9591193,4469890.5,-33.482277,150.136505,9,5,true,6ce3359d7e89cbd5c26f644f241d8064,2018-06-12 02:48:41.978017+00
,5687,,,58346,95571,Masons Hill Road,Masons Hill Road,"Masons Hill Road, West of Albury Street",Masons Hill Road,West of Albury Street,Masons Hill,Road,Albury Street,80,0000085,0050,NULL,NULL,NULL,Arterial Road,OnGround,TwoOrMoreLanes,Road,State,South West,Tumbarumba,Tumbarumba,2653,Trafficorder Tube Axlepair Counter,false,0,1,9389585,4220116,-35.770786,147.990723,10,5,true,01b010915d192eabd2e8fc58ea8ba94e,2018-06-12 02:48:41.978017+00
,5688,,,15828017,T0493,Avon Dam Road,Avon Dam Road,"Avon Dam Road, South of Arina Road",Avon Dam Road,South of Arina Road,Avon Dam,Road,Arina Road,170,-10,-10,NULL,NULL,NULL,Local Road,OnGround,TwoOrMoreLanes,Road,Local,Southern,Wollondilly,Bargo,2574,Tirtl,false,1,1,9631011,4376983,-34.308601,150.599533,10,5,true,cb535017a0ce03250bd7e03360086d81,2018-06-12 02:48:41.978017+00
,5689,,,56057,05543,Vincent Street,Vincent Street,"Vincent Street, North of Edward Street",Vincent Street,North of Edward Street,Vincent,Street,Edward Street,60,0000220,0160,B,82,B82,Arterial Road,OnGround,TwoOrMoreLanes,Street,State,Hunter,Cessnock,Cessnock,2325,Trafficorder Tube Axlepair Counter,false,0,0,9707418,4537711.5,-32.832958,151.356674,9,5,true,613239f4bdf9c77a965efe357000acc0,2018-06-12 02:48:41.978017+00
,5690,,,58351,95580,Little Baker Street,Little Baker Street,"Little Baker Street, North of Victoria Street",Burley Griffin Way,North of Victoria Street,Little Baker,Street,Victoria Street,0,0000084,0230,B,94,B94,Urbanservicelane,OnGround,OneLane,Way,State,South West,Temora,Temora,2666,Trafficorder Tube Axlepair Counter,false,0,0,9349025,4366994.5,-34.449036,147.533874,10,5,true,061b02ad1ae829ee79c9853bfe83dfe9,2018-06-12 02:48:41.978017+00
,5691,,,55922,05279,Maitland Road,Maitland Road,"Maitland Road, North of Daniel Street",Maitland Road,North of Daniel Street,Maitland,Road,Daniel Street,30,0000464,0070,NULL,NULL,NULL,Primary Road,OnGround,TwoOrMoreLanes,Road,Regional,Hunter,Newcastle,Islington,2296,Trafficorder Tube Axlepair Counter,false,0,0,9743667,4526882.5,-32.916351,151.749054,9,5,true,0870e1cbfac29a524aa63129ff526c6f,2018-06-12 02:48:41.978017+00
,5692,,,57680,92075,Newell Highway,Newell Highway,"Newell Highway, West of Solar Place",Newell Highway,West of Solar Place,Newell,Highway,Solar Place,470,0000017,3100,A,39,A39,Primary Road,OnGround,TwoOrMoreLanes,Highway,State,Western,Warrumbungle,Coonabarabran,2357,Trafficorder Dual Tube Classifier,false,0,1,9520873,4721253.5,-31.231163,149.31926,9,5,true,f50f42f26ab304f2d150131e4cf0e60f,2018-06-12 02:48:41.978017+00
,5693,,,56357,07653,King Street,King Street,"King Street, North of Bent Street",King Street,North of Bent Street,King,Street,Bent Street,90,0000522,0155,B,65,B65,Arterial Road,OnGround,TwoOrMoreLanes,Street,State,Southern,Wollongong,Port Kembla,2505,Trafficorder Tube Axlepair Counter,false,0,0,9656720,4357059.5,-34.479916,150.886917,9,5,true,ff2bc86dd6454de5150f8fd51966ecbe,2018-06-12 02:48:41.978017+00
,5694,,,57453,74453,Epping Road,Epping Road,"Epping Road, East of Bridge Street","Beecroft.beecroft Rd, Epping",East of Bridge Street,Epping,Road,Bridge Street,20,0000139,0100,NULL,NULL,NULL,Arterial Road,OnBridge,TwoOrMoreLanes,Road,State,Sydney,Parramatta,Epping,2121,Trafficorder Loop Counter,false,1,0,9677729,4434563.5,-33.773907,151.082626,10,4,true,4391ffa909556b7db901e86d5228f58a,2018-06-12 02:48:41.978017+00
,5695,,,57750,92394,Grafton Road,Grafton Road,"Grafton Road, East of Argyle-Mining Vale Road",Waterfall Way,East of Argyle-Mining Vale Road,Grafton,Road,Argyle-Mining Vale Road,2060,0000076,0270,B,78,B78,Arterial Road,OnGround,TwoOrMoreLanes,Way,State,Northern,Armidale Dumaresq,Metz,2350,Trafficorder Tube Axlepair Counter,false,0,1,9760432,4789267,-30.544332,151.799316,10,5,true,f4b292bc40895cf6ad7fb8c2a36d8226,2018-06-12 02:48:41.978017+00
,5696,,,55680,04639,Kerr Street,Kerr Street,"Kerr Street, South of Bangalow Road",Kerr Street,South of Bangalow Road,Kerr,Street,Bangalow Road,120,0000695,3130,NULL,NULL,NULL,Local Road,OnGround,TwoOrMoreLanes,Street,Local,Northern,Ballina,Ballina,2478,Trafficorder Tube Axlepair Counter,false,0,0,9940935,4966842,-28.85783,153.560379,9,5,true,029736e75e669653784b83f5c8d531b5,2018-06-12 02:48:41.978017+00
,5697,,,55793,05108,West Street,West Street,"West Street, West of Oscar Street",West Street,West of Oscar Street,West,Street,Oscar Street,40,0000456,0020,NULL,NULL,NULL,Arterial Road,OnGround,TwoOrMoreLanes,Street,Regional,Hunter,Gosford,Umina Beach,2257,Trafficorder Tube Axlepair Counter,false,0,0,9700581,4461666,-33.521244,151.317246,10,5,true,27d175391d47de1232b49e4000786fad,2018-06-12 02:48:41.978017+00
,5698,,,57358,7159RLC,Cambridge Street,Cambridge Street,"Cambridge Street, North of Joseph Street",Cambridge Street,North of Joseph Street,Cambridge,Street,Joseph Street,10,0000013,1050,A,28,A28,Primary Road,OnGround,TwoOrMoreLanes,Street,State,Sydney,Fairfield,Canley Heights,2166,Tirtl,false,1,1,9662489,4422475.5,-33.888176,150.922974,5,5,true,cf0ec2baf252ce68549daab0b34c4667,2018-06-12 02:48:41.978017+00
,5699,,,57528,86091,Glossop Street,Glossop Street,"Glossop Street, North of Hobart Street",Glossop Street,North of Hobart Street,Glossop,Street,Hobart Street,60,0007167,0010,NULL,NULL,NULL,Distributor Road,OnGround,TwoOrMoreLanes,Street,Regional,Sydney,Penrith,North St Marys,2760,Trafficorder Tube Axlepair Counter,false,0,0,9649866,4436841,-33.762833,150.780853,9,5,true,66242a41112e384d3650e0e0a62d4fc2,2018-06-12 02:48:41.978017+00
,5700,,,56224,07035,Princes Highway,Princes Highway,"Princes Highway, North of Illawarra Highway",Princes Highway,North of Illawarra Highway,Princes,Highway,Illawarra Highway,260,0000001,1315,M,1,M1,Primary Road,OnBridge,TwoOrMoreLanes,Highway,State,Southern,Wollongong,Yallah,2530,Trafficorder Loop Counter,false,1,0,9647114,4349994,-34.546795,150.785126,9,4,true,ee9667bdf2391c9a204209d368c4a0fb,2018-06-12 02:48:41.978017+00
,5701,,,56327,07426,Moss Vale Road,Moss Vale Road,"Moss Vale Road, North of Jenanter Drive",Bomaderry-Moss Vale Road,North of Jenanter Drive,Moss Vale,Road,Jenanter Drive,150,0000261,0025,B,73,B73,Arterial Road,OnGround,TwoOrMoreLanes,Road,State,Southern,Shoalhaven,Kangaroo Valley,2577,Trafficorder Tube Axlepair Counter,false,0,1,9622248,4330745.5,-34.728153,150.521271,9,5,true,0653ee1c0e6812ca0e306870cc505c4a,2018-06-12 02:48:41.978017+00
,5702,,,56469,08199,Cathcart Road,Cathcart Road,"Cathcart Road, East of Carlyle Road",South Pambula-Bombala Road,East of Carlyle Road,Cathcart,Road,Carlyle Road,800,0000091,0070,NULL,NULL,NULL,Arterial Road,OnGround,TwoOrMoreLanes,Road,Regional,Southern,Bombala,Cathcart,2632,Trafficorder Dual Tube Classifier,false,0,1,9510762,4098593.25,-36.847767,149.36087,10,5,true,66424a60709176edab48797c5dfe3bbe,2018-06-12 02:48:41.978017+00
,5703,,,58200,95073,Sturt Highway,Sturt Highway,"Sturt Highway, South of Newell Highway",Sturt Highway,South of Newell Highway,Sturt,Highway,Newell Highway,50,0000014,0211,A,20,A20,Primary Road,OnGround,TwoOrMoreLanes,Highway,State,South West,Narrandera,Gillenbah,2700,Trafficorder Tube Axlepair Counter,false,0,1,9258218,4332178.5,-34.763397,146.54335,10,5,true,d0577f285a7cceeb83547474fdace0ec,2018-06-12 02:48:41.978017+00
,5704,,,58186,95033,Hume Highway,Hume Highway,"Hume Highway, North of Glenelg Lane",Hume Highway,North of Glenelg Lane,Hume,Highway,Glenelg Lane,300,0000002,2075,M,31,M31,Primary Road,OnGround,TwoOrMoreLanes,Highway,State,South West,Greater Hume,Little Billabong,2644,Trafficorder Dual Tube Classifier,false,0,1,9348247,4241569.5,-35.580139,147.532364,9,5,true,2354141af3609379b10e4b0be7ae784c,2018-06-12 02:48:41.978017+00
,5705,,,15648001,7179,Jersey Road,Jersey Road,"Jersey Road, North of Old Prospect Road","Jersey.jersey Rd, South Wentworthville",North of Old Prospect Road,Jersey,Road,Old Prospect Road,40,0000013,1150,A,28,A28,Local Road,OnGround,TwoOrMoreLanes,Road,State,Sydney,Holroyd,South Wentworthville,2145,Tirtl,false,1,1,9666465,4430188.5,-33.817272,150.962784,5,5,true,030cd3291e74b78a7cc92acdec11bc38,2018-06-12 02:48:41.978017+00
,5706,,,57001,46106,Joseph Street,Joseph Street,"Joseph Street, North of Georges Avenue",Joseph Street,North of Georges Avenue,Joseph,Street,Georges Avenue,30,0000190,1230,A,6,A6,Distributor Road,OnGround,TwoOrMoreLanes,Street,State,Sydney,Auburn,Lidcombe,2141,Trafficorder Dual Tube Classifier,false,0,0,9673576,4423862.5,-33.871853,151.042252,9,5,true,b053ab5a4adef405c69b7bd7a1098c3f,2018-06-12 02:48:41.978017+00
,5707,,,56207,05977,T C Frith Avenue,T C Frith Avenue,"T C Frith Avenue, North of Seventh Street",Five Islands Road,North of Seventh Street,T C Frith,Avenue,Seventh Street,90,0000217,0325,B,53,B53,Arterial Road,OnGround,TwoOrMoreLanes,Road,State,Hunter,Lake Macquarie,Boolaroo,2284,Trafficorder Tube Axlepair Counter,false,0,0,9731294,4523277,-32.953861,151.618484,9,5,true,48175a23c365ffe387fada7dc4d5b93d,2018-06-12 02:48:41.978017+00
,5708,,,56222,07002,Old Hume Highway,Old Hume Highway,"Old Hume Highway, East of Isedale Road","Old Hume.old Hume Highway, Mittagong",East of Isedale Road,Old Hume,Highway,Isedale Road,280,0000260,0070,B,73,B73,Arterial Road,OnGround,TwoOrMoreLanes,Highway,State,Southern,Wingecarribee,Braemar,2575,Trafficorder Loop Counter,false,1,0,9619591,4363608,-34.432686,150.480286,9,4,true,4b6347b6c9a7ec63a032799253481858,2018-06-12 02:48:41.978017+00
,5709,,,55678,04632,Pacific Highway,Pacific Highway,"Pacific Highway, South of Yamba Road",Pacific Highway,South of Yamba Road,Pacific,Highway,Yamba Road,1000,0000010,2856,A,1,A1,Primary Road,OnGround,TwoOrMoreLanes,Highway,State,Northern,Clarence Valley,Maclean,2463,Trafficorder Dual Tube Classifier,false,0,1,9905612,4904042.5,-29.441942,153.238037,9,5,true,93801bf787d6bd3fcf1f9a551a7282f8,2018-06-12 02:48:41.978017+00
,5710,,,58273,95326,Lockhart Road,Lockhart Road,"Lockhart Road, North of Kingston Road",Howlong-Kywong Road,North of Kingston Road,Lockhart,Road,Kingston Road,670,0000370,0220,NULL,NULL,NULL,Arterial Road,OnGround,TwoOrMoreLanes,Road,Regional,South West,Narrandera,Galore,2650,Trafficorder Tube Axlepair Counter,false,0,1,9277436,4305398,-35.005516,146.752686,9,5,true,ae0a81f29785d800fd5328b93b04c73c,2018-06-12 02:48:41.978017+00
,5711,,,56589,09913,The Bucketts Way,The Bucketts Way,"The Bucketts Way, South of Old Coach Road",The Bucketts Way,South of Old Coach Road,The Bucketts Way,,Old Coach Road,250,0000090,0020,NULL,NULL,NULL,Arterial Road,OnGround,TwoOrMoreLanes,,Regional,Hunter,Great Lakes,Limeburners Creek,2324,Trafficorder Tube Axlepair Counter,false,0,1,9758849,4560405,-32.6078,151.894531,9,5,true,be856cf64de732f4e3bb58c617746bd6,2018-06-12 02:48:41.978017+00
,5712,,,55567,04303,Dawson Street,Dawson Street,"Dawson Street, North of Leycester Street",Dawson Street,North of Leycester Street,Dawson,Street,Leycester Street,100,0000065,0021,B,62,B62,Arterial Road,OnGround,TwoOrMoreLanes,Street,State,Northern,Lismore,Lismore,2480,Trafficorder Tube Axlepair Counter,false,0,0,9914341,4974475,-28.803942,153.284149,9,5,true,6ad429282eaa0307716a031d5d8f4280,2018-06-12 02:48:41.978017+00
,5713,,,56796,24214,Brighton Avenue,Brighton Avenue,"Brighton Avenue, South of Albert Road",Brighton Avenue,South of Albert Road,Brighton,Avenue,Albert Road,130,0002014,0060,NULL,NULL,NULL,Arterial Road,OnBridge,TwoOrMoreLanes,Avenue,Regional,Sydney,Canterbury,Croydon Park,2133,Trafficorder Tube Axlepair Counter,false,0,0,9679487,4420321,-33.901711,151.107651,9,5,true,4a414ef2cc8735d4b551bb9106c9b47d,2018-06-12 02:48:41.978017+00
,5714,,,57503,85019,Camden Valley Way,Camden Valley Way,"Camden Valley Way, West of Heath Road",Camden Valley Way,West of Heath Road,Camden Valley,Way,Heath Road,90,0000620,0340,NULL,NULL,NULL,Arterial Road,OnGround,TwoOrMoreLanes,Way,Regional,Sydney,Camden,Leppington,2179,Trafficorder Loop Counter,false,1,0,9651595,4413081,-33.976528,150.808868,9,4,true,a6964283970f0b43b8948d2022f525ef,2018-06-12 02:48:41.978017+00
,5715,,,58738,99254,Castlereagh Highway,Castlereagh Highway,"Castlereagh Highway, North of Boulder Road",Castlereagh Highway,North of Boulder Road,Castlereagh,Highway,Boulder Road,820,0000018,1030,B,55,B55,Primary Road,OnGround,TwoOrMoreLanes,Highway,State,Western,Lithgow,Portland,2847,Trafficorder Dual Tube Classifier,false,0,0,9582320,4485876,-33.340439,150.03598,9,5,true,e682fa56d1f919cf23992db499edbed5,2018-06-12 02:48:41.978017+00
,5716,,,56290,07313,Jamberoo Road,Jamberoo Road,"Jamberoo Road, South of Curramore Road",Jamberoo Road,South of Curramore Road,Jamberoo,Road,Curramore Road,100,0000266,0011,NULL,NULL,NULL,Arterial Road,OnGround,TwoOrMoreLanes,Road,Regional,Southern,Kiama,Curramore,2533,Trafficorder Tube Axlepair Counter,false,0,1,9645506,4340296,-34.634743,150.771423,9,5,true,257df11f05f011e6160f1df40cf3d03f,2018-06-12 02:48:41.978017+00
,5717,,,57577,91078,Gwydir Highway,Gwydir Highway,"Gwydir Highway, East of Allan Cunningham Road",Moree Road,East of Allan Cunningham Road,Gwydir,Highway,Allan Cunningham Road,100,0000012,0550,B,76,B76,Primary Road,OnGround,TwoOrMoreLanes,Road,State,Northern,Gwydir,Warialda,2402,Trafficorder Tube Axlepair Counter,false,0,1,9644591,4904585,-29.547243,150.552094,10,5,true,818ae0744ddc40463c85ba8c2f1bdcf5,2018-06-12 02:48:41.978017+00
,5718,,,55881,05209,Hannell Street,Hannell Street,"Hannell Street, North of Greenway Street","Hannell.hannell St, Wickham",North of Greenway Street,Hannell,Street,Greenway Street,60,0000316,0095,A,43,A43,Arterial Road,OnGround,TwoOrMoreLanes,Street,State,Hunter,Newcastle,Wickham,2293,Trafficorder Loop Counter,false,1,0,9744606,4526530,-32.919144,151.759262,9,4,true,c368755aef5568b504ef99b142481261,2018-06-12 02:48:41.978017+00
,5719,,,58876,GNDSTC,Hume Highway,Hume Highway,"Hume Highway, South of Annie Pyers Drive","Hume.hume Highway-Sth Coolac Offload, Pettitts-Nb",South of Annie Pyers Drive,Hume,Highway,Annie Pyers Drive,340,0000002,1832,M,31,M31,Primary Road,OnGround,TwoOrMoreLanes,Highway,State,South West,Gundagai,Gundagai,2722,Tirtl,false,1,1,9401392,4304649,-35.007648,148.111343,9,4,true,b124080edcdcc42df78a2750e13a7ff1,2018-06-12 02:48:41.978017+00
,5720,,,57633,91431,Falconer Street,Falconer Street,"Falconer Street, South of Vernon Street",Falconer Street,South of Vernon Street,Falconer,Street,Vernon Street,90,0000009,1270,A,15,A15,Primary Road,OnGround,TwoOrMoreLanes,Street,State,Northern,Guyra,South Guyra,2365,Trafficorder Tube Axlepair Counter,false,0,1,9749525,4823238,-30.24276,151.669968,9,5,true,ac47232e8a21826738ed00ff491fe548,2018-06-12 02:48:41.978017+00
,5721,,,15934015,T0485,Great Western Highway,Great Western Highway Hvcs,"Great Western Highway, South of Carawatha Road","Great Western.great Western Hwy, Blackheath",South of Carawatha Road,Great Western,Highway,Carawatha Road,300,0000005,1505,A,32,A32,Primary Road,OnGround,TwoOrMoreLanes,Highway,State,Sydney,Blue Mountains,Blackheath,2785,Tirtl,true,1,0,9603406,4454661.5,-33.616264,150.273102,10,5,true,f13e5001759a879feb07d1da17cd7d9b,2018-06-12 02:48:41.978017+00
,5722,,,58170,94512,Murringo Road,Murringo Road,"Murringo Road, North of Campbellfields Road",Murringo Road,North of Campbellfields Road,Murringo,Road,Campbellfields Road,3440,0000241,0210,NULL,NULL,NULL,Arterial Road,OnGround,TwoOrMoreLanes,Road,Regional,South West,Boorowa,Boorowa,2586,Trafficorder Tube Axlepair Counter,false,0,1,9446784,4373838,-34.378304,148.597214,10,5,true,8ed2a8293734c1231dcdd237ac6d06a0,2018-06-12 02:48:41.978017+00
,5723,,,57723,92277,Golden Highway,Golden Highway,"Golden Highway, North of Ringwood Road",Golden Highway,North of Ringwood Road,Golden,Highway,Ringwood Road,1160,0000027,0250,B,84,B84,Primary Road,OnGround,TwoOrMoreLanes,Highway,State,Hunter,Upper Hunter,Merriwa,2329,Trafficorder Tube Axlepair Counter,false,0,1,9608199,4619343,-32.129383,150.269196,10,5,true,a7cbed63a9a2e37f7ab6c2b9db8f030e,2018-06-12 02:48:41.978017+00
,5724,,,56417,08065,Princes Highway,Princes Highway,"Princes Highway, North of Victoria Creek Road",Princes Highway,North of Victoria Creek Road,Princes,Highway,Victoria Creek Road,510,0000001,2216,NULL,NULL,NULL,Primary Road,OnGround,TwoOrMoreLanes,Highway,Local,Southern,Eurobodalla,Central Tilba,2546,Trafficorder Tube Axlepair Counter,false,0,0,9578093,4157694,-36.299923,150.095078,9,5,true,5d5fb1b38afd797c0aa68d1ce821522e,2018-06-12 02:48:41.978017+00
,5725,,,58238,95188,Grahamstown Road,Grahamstown Road,"Grahamstown Road, South of Old Gundagai Road",Grahamstown Road,South of Old Gundagai Road,Grahamstown,Road,Old Gundagai Road,20,4390280,0110,NULL,NULL,NULL,Arterial Road,OnGround,TwoOrMoreLanes,Road,Local,South West,Tumut,Adelong,2729,Trafficorder Dual Tube Classifier,false,0,1,9396089,4272064,-35.301952,148.056839,9,5,true,4a06456077434e48670c83ab729961a8,2018-06-12 02:48:41.978017+00
,5726,,,58828,99887,Sydney Road,Sydney Road,"Sydney Road, West of Ashworth Drive",Great Western Highway,West of Ashworth Drive,Sydney,Road,Ashworth Drive,90,0000005,1740,A,32,A32,Primary Road,OnGround,TwoOrMoreLanes,Highway,State,Western,Bathurst Regional,Kelso,2795,Trafficorder Dual Tube Classifier,false,0,1,9543833,4478097.5,-33.420025,149.62439,10,5,true,b713eace57a4dc818291db141c263d9b,2018-06-12 02:48:41.978017+00
,5727,,,15168302,6105,Great Western Highway,Great Western Highway,"Great Western Highway, West of Curly Dick Road","Great Western.great Western Highway, Meadow Flat",West of Curly Dick Road,Great Western,Highway,Curly Dick Road,60,0000005,1670,A,32,A32,Primary Road,OnGround,TwoOrMoreLanes,Highway,State,Western,Lithgow,Meadow Flat,2795,Tirtl,false,1,1,9572078,4475431.5,-33.437302,149.929047,10,4,true,5dfbc402a2e1c01cb173886587395dba,2018-06-12 02:48:41.978017+00
,5728,,,58033,93899,Whylandra Street,Whylandra Street,"Whylandra Street, West of Erskine Street",Whylandra Street,West of Erskine Street,Whylandra,Street,Erskine Street,10,0000017,2851,A,39,A39,Primary Road,OnGround,TwoOrMoreLanes,Street,State,Western,Dubbo,Dubbo,2830,Trafficorder Tube Axlepair Counter,false,0,0,9450575,4610422.5,-32.243011,148.59906,3,5,true,c55c939beaefe6bd2a7b0e6dade16837,2018-06-12 02:48:41.978017+00
,5729,,,55411,02396,King Street,King Street,"King Street, South of Newman Street","King.king St, Newtown",South of Newman Street,King,Street,Newman Street,10,0000001,0120,A,36,A36,Arterial Road,OnGround,OneLane,Street,State,Sydney,Marrickville,Newtown,2042,Trafficorder Loop Counter,false,1,0,9686020,4420436,-33.898334,151.178238,9,5,true,4fcf9e50a1a043c9d3c37e3a28c056a4,2018-06-12 02:48:41.978017+00
,5730,,,55845,05165,Wallarah Road,Wallarah Road,"Wallarah Road, West of Minnamurra Road",Wallarah Road,West of Minnamurra Road,Wallarah,Road,Minnamurra Road,0,0000509,0015,B,70,B70,Arterial Road,OnGround,TwoOrMoreLanes,Road,State,Hunter,Wyong,Gorokan,2263,Trafficorder Tube Axlepair Counter,false,0,0,9718360,4490538.5,-33.254139,151.495239,10,5,true,756f83d17ff2dd5e42026758d0156711,2018-06-12 02:48:41.978017+00
,5731,,,55977,05394,Nelson Bay Road,Nelson Bay Road,"Nelson Bay Road, North of Nineteenth Avenue",Nelson Bay Road,North of Nineteenth Avenue,Nelson Bay,Road,Nineteenth Avenue,140,0000108,0080,B,63,B63,Arterial Road,OnGround,TwoOrMoreLanes,Road,State,Hunter,Port Stephens,Fern Bay,2295,Trafficorder Tube Axlepair Counter,false,0,1,9748537,4532924,-32.859875,151.798142,9,5,true,f4f8a033ef5f5b1eab46f7ddacdb5418,2018-06-12 02:48:41.978017+00
,5732,,,57423,74077,Junction Road,Junction Road,"Junction Road, East of Edgeworth David Avenue","Edgeworth David.edgeworth David Ave, Wahroonga",East of Edgeworth David Avenue,Junction,Road,Edgeworth David Avenue,20,0002043,0320,NULL,NULL,NULL,Arterial Road,OnGround,TwoOrMoreLanes,Avenue,Regional,Sydney,Hornsby,Wahroonga,2076,Trafficorder Loop Counter,false,1,0,9681171,4441710,-33.708252,151.116745,10,4,true,6b879144bacc15a07c4f0734fbc1b25c,2018-06-12 02:48:41.978017+00
,5733,,,58237,95186,Gocup Road,Gocup Road,"Gocup Road, North of Yarra Road",Gocup Road,North of Yarra Road,Gocup,Road,Yarra Road,780,0000279,0010,NULL,NULL,NULL,Arterial Road,OnBridge,TwoOrMoreLanes,Road,State,South West,Tumut,Tumut,2720,Trafficorder Tube Axlepair Counter,false,0,1,9409846,4273389,-35.288662,148.207947,9,5,true,bafe7db071eb1f26478a43e9b5e22ece,2018-06-12 02:48:41.978017+00
,5734,,,57234,66021,Woodville Road,Woodville Road,"Woodville Road, South of Allowrie Road","Woodville.woodville Rd, Villawood",South of Allowrie Road,Woodville,Road,Allowrie Road,50,0000640,0010,NULL,NULL,NULL,Arterial Road,OnGround,OneLane,Road,State,Sydney,Fairfield,Villawood,2163,Excel Lpl,false,1,1,9667180,4422248.5,-33.888622,150.97377,9,4,true,13d0ee4f8015d1f728f4af5980221b5b,2018-06-12 02:48:41.978017+00
,5735,,,57397,73042,Windsor Road,Windsor Road,"Windsor Road, East of Northwest Transitway",Windsor Road,East of Northwest Transitway,Windsor,Road,Northwest Transitway,130,0000184,0225,NULL,NULL,NULL,Arterial Road,OnBridge,TwoOrMoreLanes,Road,State,Sydney,The Hills,Kellyville,2155,Trafficorder Tube Axlepair Counter,false,0,0,9664083,4442763,-33.704697,150.931946,9,5,true,7a9555420a1058d5ca79cc74a564b2c9,2018-06-12 02:48:41.978017+00
,5736,,,55334,02083,Glenmore Road,Glenmore Road,"Glenmore Road, West of Flinton Street",Glenmore Road,West of Flinton Street,Glenmore,Road,Flinton Street,40,-10,-10,NULL,NULL,NULL,Distributor Road,OnGround,TwoOrMoreLanes,Road,Local,Sydney,Woollahra,Paddington,2021,Trafficorder Tube Axlepair Counter,false,0,0,9690482,4422039.5,-33.882259,151.225784,10,5,true,a74c96de07873dabe462268b15b9fe04,2018-06-12 02:48:41.978017+00
,5737,,,99990015,HEXBUCHW-PR,Hunter Expressway,Hunter Expressway,"Hunter Expressway, South of John Renshaw Drive",Hunter.hunter Expressway,South of John Renshaw Drive,Hunter,Expressway,John Renshaw Drive,960,0006011,0060,M,15,M15,Motorway,OnGround,TwoOrMoreLanes,Expressway,State,Hunter,Cessnock,Buchanan,2323,Tirtl,false,1,1,9724400,4536689,-32.835659,151.538528,10,5,true,380762906d0dbbe5e1115a1fec6d811b,2018-06-12 02:48:41.978017+00
,5738,,,55471,04066,Pacific Highway,Pacific Highway,"Pacific Highway, West of Plantation Drive",Pacific Highway,West of Plantation Drive,Pacific,Highway,Plantation Drive,430,0000010,3228,B,62,B62,Primary Road,OnGround,TwoOrMoreLanes,Highway,State,Northern,Byron,Ewingsdale,2481,Trafficorder Tube Axlepair Counter,false,0,1,9941221,4990796,-28.642416,153.547958,9,5,true,b67dc80209a28f41330e24adfe0e6ad8,2018-06-12 02:48:41.978017+00
,5739,,,15190087,6116,Pacific Highway,Pacific Highway,"Pacific Highway, North of Bridge Street","Pacific.pacific Highway, Broadwater",North of Bridge Street,Pacific,Highway,Bridge Street,10,0000010,3080,A,1,A1,Primary Road,OnBridge,TwoOrMoreLanes,Highway,State,Northern,Ballina,Wardell,2477,Tirtl,false,1,1,9930929,4956881,-28.952976,153.464539,9,4,true,63090ed8a925ec498a242301d615e633,2018-06-12 02:48:41.978017+00
,5740,,,56146,05694,John Renshaw Drive,John Renshaw Drive,"John Renshaw Drive, East of Hunter Expressway",John Renshaw Drive,East of Hunter Expressway,John Renshaw,Drive,Hunter Expressway,400,0000588,0035,B,68,B68,Arterial Road,OnGround,TwoOrMoreLanes,Drive,Local,Hunter,Cessnock,Buchanan,2323,Trafficorder Tube Axlepair Counter,false,0,1,9724114,4537499.5,-32.828461,151.535095,10,5,true,ba44ddb2153f3f84e4f7d731d7380dcf,2018-06-12 02:48:41.978017+00
,5741,,,55760,05055,New England Highway,New England Highway,"New England Highway, East of Woodlands Close","New England.new England Highway, Hexham",East of Woodlands Close,New England,Highway,Woodlands Close,400,0000009,0105,A,43,A43,Primary Road,OnGround,TwoOrMoreLanes,Highway,State,Hunter,Newcastle,Tarro,2322,Trafficorder Loop Counter,false,1,0,9737154,4538917.5,-32.81049,151.673676,9,4,true,1bc2ef840b33f33f9e3c57610e28b1d3,2018-06-12 02:48:41.978017+00
,5742,,,56443,08126,Princes Highway,Princes Highway,"Princes Highway, North of Carrie Crescent",John Street,North of Carrie Crescent,Princes,Highway,Carrie Crescent,30,0000001,2050,A,1,A1,Primary Road,OnGround,TwoOrMoreLanes,Street,State,Southern,Eurobodalla,Moruya,2537,Trafficorder Tube Axlepair Counter,false,0,1,9578340,4199905,-35.919724,150.083954,9,5,true,b672bd6bb6f2ae3310a6e7c8ad2689f8,2018-06-12 02:48:41.978017+00
,5743,,,57439,74228,New Line Road,New Line Road,"New Line Road, South of Tennyson Close","New Line.new Line Rd, Cherrybrook",South of Tennyson Close,New Line,Road,Tennyson Close,110,0000656,0045,NULL,NULL,NULL,Distributor Road,OnGround,TwoOrMoreLanes,Road,State,Sydney,Hornsby,Cherrybrook,2126,Tirtl,false,1,1,9673691,4440364,-33.723019,151.036606,9,5,true,97d5b3393ad4141f58f07fc588d4fba9,2018-06-12 02:48:41.978017+00
,5744,,,57094,51233,Epping Road,Epping Road,"Epping Road, North of Yarwood Street","Epping.epping Rd, Marsfield",North of Yarwood Street,Epping,Road,Yarwood Street,50,0000373,0110,NULL,NULL,NULL,Arterial Road,OnGround,TwoOrMoreLanes,Road,State,Sydney,Ryde,Marsfield,2122,Excel Lpl,false,1,1,9679670,4434428.5,-33.774441,151.103638,3,4,true,2314577177db68df1369f1cb75711750,2018-06-12 02:48:41.978017+00
,5745,,,58360,95604,Federation Avenue,Federation Avenue,"Federation Avenue, South of Edward Street",Federation Avenue,South of Edward Street,Federation,Avenue,Edward Street,100,0000314,0070,NULL,NULL,NULL,Arterial Road,OnGround,TwoOrMoreLanes,Avenue,State,South West,Corowa,Corowa,2646,Trafficorder Tube Axlepair Counter,false,0,1,9244338,4194561,-36.003418,146.382752,9,5,true,50faaaaea0500a681c4d25bfb27c5152,2018-06-12 02:48:41.978017+00
,5746,,,58889,RD001,Princes Highway,Princes Highway,"Princes Highway, South of Shellharbour Road",Princes Highway.princes Highway,South of Shellharbour Road,Princes,Highway,Shellharbour Road,30,0000001,1343,A,1,A1,Primary Road,OnGround,TwoOrMoreLanes,Highway,State,Southern,Shellharbour,Croom,2527,Excel Lpl,false,1,1,9652388,4345093,-34.589237,150.844559,9,4,true,c4f065a3f2d1ddbe2e82ce19efd2dfda,2018-06-12 02:48:41.978017+00
,5747,,,55394,02385,Regent Street,Regent Street,"Regent Street, North of James Street","Regent.regent St, Alexandria",North of James Street,Regent,Street,James Street,10,0000170,0280,NULL,NULL,NULL,Arterial Road,OnGround,TwoOrMoreLanes,Street,State,Sydney,Sydney,Redfern,2016,Trafficorder Dual Tube Classifier,false,1,0,9688216,4421320,-33.889572,151.201599,9,5,true,85c1decabde4822268be34e29e333761,2018-06-12 02:48:41.978017+00
,5748,,,56419,08075,Delegate Road,Delegate Road,"Delegate Road, West of Monaro Highway",South Bombala-Vic Border Road,West of Monaro Highway,Delegate,Road,Monaro Highway,60,0000093,0010,NULL,NULL,NULL,Arterial Road,OnGround,TwoOrMoreLanes,Road,Regional,Southern,Bombala,Bombala,2632,Trafficorder Tube Axlepair Counter,false,0,1,9498120,4090290.5,-36.92498,149.221268,9,5,true,1035fad75ec04e034838e1542e1ec716,2018-06-12 02:48:41.978017+00
,5749,,,56676,17121,O'riordan Street,O'riordan Street,"O'riordan Street, South of Bourke Road",O'riordan Street,South of Bourke Road,O'riordan,Street,Bourke Road,60,0000658,0045,NULL,NULL,NULL,Arterial Road,OnGround,TwoOrMoreLanes,Street,State,Sydney,Botany Bay,Mascot,2020,Trafficorder Dual Tube Classifier,false,0,0,9686751,4417186.5,-33.927368,151.187561,9,5,true,20e344d080b6745a5cbf8ad6e30f3f6c,2018-06-12 02:48:41.978017+00
,5750,,,58569,97199,Swan Hill Road,Swan Hill Road,"Swan Hill Road, North of Stony Crossing Road",Swan Hill Road,North of Stony Crossing Road,Swan Hill,Road,Stony Crossing Road,1290,0000386,0050,NULL,NULL,NULL,Arterial Road,OnGround,TwoOrMoreLanes,Road,Local,South West,Wakool,Murray Downs,2734,Trafficorder Tube Axlepair Counter,false,0,1,8993446,4271719,-35.264847,143.629303,9,5,true,6981096de97f8d0198b66c6dad7c2923,2018-06-12 02:48:41.978017+00
,5751,,,58543,97076,Wakool Road,Wakool Road,"Wakool Road, East of Calimo Road",Wakool Road,East of Calimo Road,Wakool,Road,Calimo Road,3570,0000094,0030,NULL,NULL,NULL,Arterial Road,OnGround,TwoOrMoreLanes,Road,Local,South West,Murray,Deniliquin,2710,Trafficorder Tube Axlepair Counter,false,0,1,9107437,4248535,-35.500816,144.87706,10,5,true,4c16c1506683946e218136e4ea0c6bf6,2018-06-12 02:48:41.978017+00
,5752,,,58128,94344,Albury Street,Albury Street,"Albury Street, East of Ward Street",Burley Griffin Way,East of Ward Street,Albury,Street,Ward Street,20,0000084,0120,B,94,B94,Arterial Road,OnGround,TwoOrMoreLanes,Way,State,South West,Harden,Harden,2587,Trafficorder Tube Axlepair Counter,false,0,0,9424578,4354928.5,-34.551708,148.358292,10,5,true,d45a91b17ac9520f8090a66942417e06,2018-06-12 02:48:41.978017+00
,5753,,,58212,95096,Reg Rattey Drive,Reg Rattey Drive,"Reg Rattey Drive, West of Shire Lane",Newell Highway,West of Shire Lane,Reg Rattey,Drive,Shire Lane,50,0000017,2415,A,39,A39,Primary Road,OnGround,TwoOrMoreLanes,Highway,State,South West,Bland,West Wyalong,2671,Trafficorder Tube Axlepair Counter,false,0,0,9318508,4425428.5,-33.922794,147.200333,9,5,true,0faa96350b7871b7eb497ee9e766743f,2018-06-12 02:48:41.978017+00
,5754,,,56333,07449,Bolong Road,Bolong Road,"Bolong Road, West of Back Forest Road",Bolong Road,West of Back Forest Road,Bolong,Road,Back Forest Road,110,0000293,0040,NULL,NULL,NULL,Arterial Road,OnBridge,TwoOrMoreLanes,Road,Regional,Southern,Shoalhaven,Bolong,2540,Trafficorder Tube Axlepair Counter,false,0,1,9636058,4316357,-34.853565,150.677582,10,5,true,e14f289737b2d9ed41129f93f5e58ef5,2018-06-12 02:48:41.978017+00
,5755,,,55747,05043,Brisbane Water Drive,Brisbane Water Drive,"Brisbane Water Drive, North of The Boulevarde","Brisbane Water.brisbane Water Drive, Woy Woy",North of The Boulevarde,Brisbane Water,Drive,The Boulevarde,110,0000349,0055,NULL,NULL,NULL,Arterial Road,OnGround,TwoOrMoreLanes,Drive,State,Hunter,Gosford,Woy Woy,2256,Trafficorder Loop Counter,false,1,0,9701412,4465943,-33.482365,151.32428,9,5,true,3b69aa3066b2f83c10f525b8dff776fd,2018-06-12 02:48:41.978017+00
,5756,,,15252016,6179,Picton Road,Picton Road,"Picton Road, South of Macarthur Drive","Picton.picton Rd, Nr Cordeaux Dam",South of Macarthur Drive,Picton,Road,Macarthur Drive,400,0000095,0075,B,88,B88,Arterial Road,OnGround,TwoOrMoreLanes,Road,State,Southern,Wollondilly,Wilton,2571,Tirtl,false,1,1,9641691,4380579,-34.272804,150.714188,10,4,true,48cea1c2b5c3a999a13c7d9891faa45a,2018-06-12 02:48:41.978017+00
,5758,,,57650,91577,New England Highway,New England Highway,"New England Highway, North of Western Boundary Road",New England Highway,North of Western Boundary Road,New England,Highway,Western Boundary Road,10,0000009,1530,A,15,A15,Primary Road,OnGround,TwoOrMoreLanes,Highway,State,Northern,Tenterfield,Tenterfield,2372,Trafficorder Tube Axlepair Counter,false,0,1,9788328,4955248.5,-29.038141,152.00679,9,5,true,0c8d66b33227abb6471b37b8a999aa5d,2018-06-12 02:48:41.978017+00
,5759,,,15934002,T0289,Pacific Motorway,Pacific Motorway Hvcs,"Pacific Motorway, East of Pacific Highway","Pacific.sydney-Newcastle Freeway, Mooney Mooney",East of Pacific Highway,Pacific,Motorway,Pacific Highway,890,0006003,1131,M,1,M1,Motorway,OnGround,TwoOrMoreLanes,Motorway,State,Hunter,Gosford,Mount White,2250,Tirtl,true,1,1,9690502,4469397.5,-33.455235,151.205383,1,5,true,4658eb681011f551e70b496916f73896,2018-06-12 02:48:41.978017+00
,5760,,,56701,19192,Old Canterbury Road,Old Canterbury Road,"Old Canterbury Road, West of Summer Hill Street",Old Canterbury Road,West of Summer Hill Street,Old Canterbury,Road,Summer Hill Street,60,0000652,0010,NULL,NULL,NULL,Arterial Road,OnBridge,TwoOrMoreLanes,Road,State,Sydney,Marrickville,Dulwich Hill,2203,Trafficorder Tube Axlepair Counter,false,0,0,9682739,4420902,-33.895313,151.142563,9,5,true,ab00a363c173eac2e17acd7dd779275c,2018-06-12 02:48:41.978017+00
,5761,,,56933,41022,King Georges Road,King Georges Road,"King Georges Road, South of Ruby Street",King Georges Road,South of Ruby Street,King Georges,Road,Ruby Street,90,0000200,0070,A,3,A3,Arterial Road,OnGround,TwoOrMoreLanes,Road,State,Sydney,Hurstville,Penshurst,2222,Trafficorder Dual Tube Classifier,false,0,0,9677782,4413626,-33.962677,151.092056,9,5,true,68cf3e9f0094481d523a4016231ffb56,2018-06-12 02:48:41.978017+00
,5762,,,58280,95364,Tocumwal Road,Tocumwal Road,"Tocumwal Road, West of Savernake Road",Tocumwal Road,West of Savernake Road,Tocumwal,Road,Savernake Road,40,0000550,0060,NULL,NULL,NULL,Arterial Road,OnGround,TwoOrMoreLanes,Road,Regional,South West,Corowa,Mulwala,2647,Trafficorder Tube Axlepair Counter,false,0,1,9210611,4197949,-35.970558,146.009125,10,5,true,df07d2be31259416c0c23b611c8c3149,2018-06-12 02:48:41.978017+00
,5763,,,56715,20067,City-West Link Road,City-West Link Road,"City-West Link Road, West of Boomerang Street",Dobroyd Parade,West of Boomerang Street,City-West Link,Road,Boomerang Street,100,0000650,0105,A,4,A4,Arterial Road,OnGround,TwoOrMoreLanes,Parade,State,Sydney,Ashfield,Haberfield,2045,Trafficorder Loop Counter,false,1,0,9683077,4423708,-33.869892,151.145019,10,4,true,f81da260a877295d6d2779df8fbd0919,2018-06-12 02:48:41.978017+00
,5764,,,56538,09244,Pacific Highway,Pacific Highway,"Pacific Highway, South of Ferry Street",Cooper Street,South of Ferry Street,Pacific,Highway,Ferry Street,100,0000010,2400,A,1,A1,Primary Road,OnBridge,TwoOrMoreLanes,Street,State,Northern,Nambucca,North Macksville,2447,Trafficorder Tube Axlepair Counter,false,0,0,9866961,4765972.5,-30.70488,152.92131,5,5,true,07abe450cbf9861f52b0ff8ab97fa9f2,2018-06-12 02:48:41.978017+00
,5765,,,15252017,6180,Pacific Highway,Pacific Highway,"Pacific Highway, South of Burkes Lane","Pacific.pacific Highway, Nambucca Heads",South of Burkes Lane,Pacific,Highway,Burkes Lane,300,0000010,2430,NULL,NULL,NULL,Primary Road,OnGround,TwoOrMoreLanes,Highway,State,Northern,Nambucca,Valla,2448,Tirtl,false,1,1,9875521,4779017,-30.583015,153.002701,1,4,true,dcec1c0060710e33fff42789c461e1ee,2018-06-12 02:48:41.978017+00
,5766,,,55899,05245,Maitland Street,Maitland Street,"Maitland Street, South of Sydney Street",Maitland Street,South of Sydney Street,Maitland,Street,Sydney Street,100,0000009,0560,A,15,A15,Primary Road,OnGround,TwoOrMoreLanes,Street,State,Hunter,Muswellbrook,Muswellbrook,2333,Trafficorder Tube Axlepair Counter,false,0,0,9665880,4601906.5,-32.268822,150.887405,9,5,true,b6a51fab8da037a414acdb1f57a5a845,2018-06-12 02:48:41.978017+00
,5767,,,58576,97216,Moulamein Road,Moulamein Road,"Moulamein Road, South of Wakool Road",Moulamein Road,South of Wakool Road,Moulamein,Road,Wakool Road,1080,0000319,0040,NULL,NULL,NULL,Arterial Road,OnGround,TwoOrMoreLanes,Road,Regional,South West,Wakool,Barham,2732,Trafficorder Tube Axlepair Counter,false,0,1,9046518,4245221.5,-35.517757,144.204758,9,5,true,7c7e6572f136408b9deb5e8107d7d8f3,2018-06-12 02:48:41.978017+00
,5768,,,15828012,T0282,Hume Highway,Hume Highway Hvcs,"Hume Highway, East of George Street","Hume.nb Hume Highway, Marulan",East of George Street,Hume,Highway,George Street,320,0000002,1132,M,31,M31,Primary Road,OnGround,TwoOrMoreLanes,Highway,State,Southern,Goulburn Mulwaree,Marulan,2579,Tirtl,true,1,1,9575783,4334523,-34.707207,150.01265,1,5,true,54ea94025b8c6b85acfde9d1ff697d45,2018-06-12 02:48:41.978017+00
,5769,,,57223,65140,The Horsley Drive,The Horsley Drive,"The Horsley Drive, West of Ferrers Road",The Horsley Drive,West of Ferrers Road,The Horsley Drive,,Ferrers Road,100,0000609,0165,NULL,NULL,NULL,Arterial Road,OnGround,TwoOrMoreLanes,Drive,State,Sydney,Fairfield,Horsley Park,2175,Trafficorder Dual Tube Classifier,false,0,0,9657725,4427381,-33.845543,150.869492,10,5,true,31f13820b5da08db298dbffd26bb394d,2018-06-12 02:48:41.978017+00
,5770,,,56744,23001,Princes Highway,Princes Highway,"Princes Highway, East of Brodie Spark Drive","Princes.princes Hwy, Tempe",East of Brodie Spark Drive,Princes,Highway,Brodie Spark Drive,200,0000001,0250,A,36,A36,Primary Road,OnGround,TwoOrMoreLanes,Highway,State,Sydney,Rockdale,Wolli Creek,2205,Trafficorder Dual Tube Classifier,false,1,0,9683869,4417076.5,-33.929401,151.156433,9,4,true,718ce1e963b83d4f9eb9b109891a75f4,2018-06-12 02:48:41.978017+00
,5771,,,57041,50183,Briens Road,Briens Road,"Briens Road, West of Kleins Road",Briens Road,West of Kleins Road,Briens,Road,Kleins Road,50,0000013,1230,A,40,A40,Distributor Road,OnGround,TwoOrMoreLanes,Road,State,Sydney,Parramatta,Northmead,2152,Trafficorder Loop Counter,false,1,0,9669442,4432706,-33.793552,150.993912,10,4,true,54e81811c23c41a8fd50c9bd9a9e75f0,2018-06-12 02:48:41.978017+00
,5772,,,57200,63109,Heathcote Road,Heathcote Road,"Heathcote Road, East of Margate Avenue",Heathcote Road,East of Margate Avenue,Heathcote,Road,Margate Avenue,80,0000512,0071,NULL,NULL,NULL,Arterial Road,OnGround,TwoOrMoreLanes,Road,State,Sydney,Liverpool,Holsworthy,2173,Trafficorder Tube Axlepair Counter,false,0,0,9665489,4414413,-33.959854,150.95871,9,5,true,68565af337364f734363b141e9e2d41a,2018-06-12 02:48:41.978017+00
,5773,,,15154105,T0242,Mitchell Highway,Mitchell Highway,"Mitchell Highway, East of Pangee Street","Mitchell.mitchell Highway, Nyngan",East of Pangee Street,Mitchell,Highway,Pangee Street,260,0000007,0970,A,32,A32,Primary Road,OnGround,TwoOrMoreLanes,Highway,State,Western,Bogan,Nyngan,2825,Tirtl,false,1,1,9319831,4686287.5,-31.568602,147.209,10,4,true,0665b7734567dce54c2da06a4d845336,2018-06-12 02:48:41.978017+00
,5774,,,56266,07202,Springhill Road,Springhill Road,"Springhill Road, East of Keira Street",Springhill Road,East of Keira Street,Springhill,Road,Keira Street,140,0000581,0060,B,65,B65,Arterial Road,OnGround,TwoOrMoreLanes,Road,State,Southern,Wollongong,Wollongong,2500,Trafficorder Tube Axlepair Counter,false,0,0,9657380,4361491,-34.439747,150.892303,9,5,true,0c5ef30bf509aa2664b0f68f5f8b1059,2018-06-12 02:48:41.978017+00
,5775,,,58367,95618,Wade Street,Wade Street,"Wade Street, East of Cowabbie Street",Wade Street,East of Cowabbie Street,Wade,Street,Cowabbie Street,70,0000243,0330,NULL,NULL,NULL,Arterial Road,OnGround,TwoOrMoreLanes,Street,Regional,South West,Coolamon,Coolamon,2701,Trafficorder Tube Axlepair Counter,false,0,1,9318406,4326343.5,-34.816692,147.201294,10,5,true,cff9f4b0ed270d4abe6cfa3b2e5e81da,2018-06-12 02:48:41.978017+00
,5776,,,55767,05062,New England Highway,New England Highway,"New England Highway, West of Denton Park Drive",New England Highway,West of Denton Park Drive,New England,Highway,Denton Park Drive,30,0000009,0305,A,43,A43,Primary Road,OnGround,TwoOrMoreLanes,Highway,State,Hunter,Maitland,Rutherford,2320,Trafficorder Tube Axlepair Counter,false,0,1,9722927,4550603,-32.710777,151.516357,9,5,true,d3d4ec6a76b02253defd51f01a199bb9,2018-06-12 02:48:41.978017+00
,5777,,,55949,05315,Newcastle Road,Newcastle Road,"Newcastle Road, South of Dent Street",Newcastle Road,South of Dent Street,Newcastle,Road,Dent Street,10,0000082,0110,A,37,A37,Arterial Road,OnGround,TwoOrMoreLanes,Road,State,Hunter,Newcastle,Lambton,2299,Trafficorder Tube Axlepair Counter,false,0,0,9739599,4527871.5,-32.909092,151.705093,10,5,true,befad006912a0aacf2607d05daef760a,2018-06-12 02:48:41.978017+00
,5778,,,57613,91344,Glen Innes Road,Glen Innes Road,"Glen Innes Road, East of Chester Lane",Glen Innes Road,East of Chester Lane,Glen Innes,Road,Chester Lane,30,0000012,0390,B,76,B76,Primary Road,OnGround,TwoOrMoreLanes,Road,State,Northern,Inverell,Inverell,2360,Trafficorder Tube Axlepair Counter,false,0,0,9698619,4876762,-29.779953,151.119781,10,5,true,2cc0aacc4888a6084aee6517add2e541,2018-06-12 02:48:41.978017+00
,5779,,,56164,05849,Tocal Road,Tocal Road,"Tocal Road, West of Paterson Road",Tocal Road,West of Paterson Road,Tocal,Road,Paterson Road,490,0000101,0050,NULL,NULL,NULL,Arterial Road,OnGround,TwoOrMoreLanes,Road,Regional,Hunter,Dungog,Tocal,2421,Trafficorder Tube Axlepair Counter,false,0,1,9731776,4560803,-32.615318,151.605942,9,5,true,57c8ac339e157398d076c886a8fc58f1,2018-06-12 02:48:41.978017+00
,5780,,,57816,92745,Castlereagh Highway,Castlereagh Highway,"Castlereagh Highway, East of Wallaroo Road",Castlereagh Highway,East of Wallaroo Road,Castlereagh,Highway,Wallaroo Road,210,0000018,2040,B,55,B55,Primary Road,OnGround,TwoOrMoreLanes,Highway,State,Western,Warrumbungle,Mendooran,2842,Trafficorder Dual Tube Classifier,false,0,1,9505611,4655240.5,-31.829643,149.173477,10,5,true,a921a6a6cae3c92dab680de5f08e8881,2018-06-12 02:48:41.978017+00
,5781,,,55675,04596,Risk Road,Risk Road,"Risk Road, North of Summerland Way",Risk Road,North of Summerland Way,Risk,Road,Summerland Way,630,-10,-10,NULL,NULL,NULL,Local Road,OnGround,OneLane,Road,Local,Northern,Kyogle,The Risk,2474,Trafficorder Tube Axlepair Counter,false,0,1,9882640,5011599.5,-28.48698,152.939026,9,5,true,4d769fda62c67049fcca9d0a343f15eb,2018-06-12 02:48:41.978017+00
,5782,,,56750,23027,The Grand Parade,The Grand Parade,"The Grand Parade, South of Bath Street",The Grand Parade,South of Bath Street,The Grand Parade,,Bath Street,60,0000194,0050,NULL,NULL,NULL,Local Road,OnGround,TwoOrMoreLanes,Parade,State,Sydney,Rockdale,Monterey,2217,Trafficorder Tube Axlepair Counter,false,0,0,9683195,4412319.5,-33.97253,151.151184,9,5,true,e5610450af094b83663b5670319eba69,2018-06-12 02:48:41.978017+00
,5783,,,58231,95161,Burley Griffin Way,Burley Griffin Way,"Burley Griffin Way, East of Little Macgregor Street",Burley Griffin Way,East of Little Macgregor Street,Burley Griffin,Way,Little Macgregor Street,10,0000084,0250,B,94,B94,Arterial Road,OnGround,TwoOrMoreLanes,Way,State,South West,Temora,Temora,2666,Trafficorder Tube Axlepair Counter,false,0,1,9347969,4367174.5,-34.447464,147.522369,10,5,true,ac969abc66eba1b3582141c5ea2ab027,2018-06-12 02:48:41.978017+00
,5784,,,57669,92031,New England Highway,New England Highway,"New England Highway, West of Salisbury Street",New England Highway,West of Salisbury Street,New England,Highway,Salisbury Street,1610,0000009,0755,A,15,A15,Primary Road,OnGround,TwoOrMoreLanes,Highway,State,Hunter,Upper Hunter,Murrurundi,2338,Trafficorder Tube Axlepair Counter,false,0,1,9666785,4656609,-31.775192,150.875458,9,5,true,871c66cbf0dadaf859375641465eba55,2018-06-12 02:48:41.978017+00
,5785,,,56161,05841,Mitchell Line Of Road,Mitchell Line Of Road,"Mitchell Line Of Road, West of New Freugh Lane",Golden Highway,West of New Freugh Lane,Mitchell Line Of Road,,New Freugh Lane,1650,0000027,0010,B,84,B84,Primary Road,OnGround,TwoOrMoreLanes,Highway,State,Hunter,Singleton,Singleton Military Area,2331,Trafficorder Tube Axlepair Counter,false,0,1,9695136,4559555,-32.64053,151.216064,10,5,true,0ab3950ba0da2fe597d1a5668a8a8231,2018-06-12 02:48:41.978017+00
,5786,,,58051,94026,Yass Valley Way,Yass Valley Way,"Yass Valley Way, South of Grevillea Drive",Yass Valley Way,South of Grevillea Drive,Yass Valley,Way,Grevillea Drive,490,-10,-10,NULL,NULL,NULL,Arterial Road,OnGround,TwoOrMoreLanes,Way,Local,South West,Yass Valley,Manton,2582,Trafficorder Dual Tube Classifier,false,0,1,9480844,4319335.5,-34.864609,148.978989,10,5,true,a8bb78327de72ca229870d1ed10ab666,2018-06-12 02:48:41.978017+00
